aa,No,번호,도서관명,지역,시군구,도서관구분,설립주체,운영방식,개관년도,우편번호,주소,상세주소,홈페이지,전화번호,팩스,주소2,경도,위도,상태
research_lib_1.shp.csv,1,100,강릉아산병원의학정보실,강원,강릉시,전문,민간,-,-,210120,강릉시 사천면 방동리,415,http://slima.amc.seoul.kr/GML/,033-610-3013,033-610-3020,강릉시 사천면 방동리415,128.8584927,37.81819067,정좌표
research_lib_1.shp.csv,2,100,강원도교육연구원 도서실,강원,춘천시,전문,공공,-,0,200150,춘천시 옥천동 ,24,http//www.keric.or.kr,033) 250-2436,033) 250-2429,춘천시 옥천동 24,127.7307522,37.88353987,정좌표
research_lib_1.shp.csv,3,100,강원도교육연수원 도서실,강원,강릉시,전문,공공,-,-,200020,강릉시 초당동 ,57-18,www.geti.or.kr,033) 653-7006,033) 652-7323,강릉시 초당동 57-18,128.9183093,37.78645541,정좌표
research_lib_1.shp.csv,4,100,강원도농업기술원 문헌정보실,강원,춘천시,전문,공공,-,0,200852,춘천시 우두동 ,402,-,033) 248-6045,033) 248-6050,춘천시 우두동 402 ,127.7356393,37.90155023,인근좌표
research_lib_1.shp.csv,5,100,강원도의회 자료실,강원,춘천시,전문,공공,-,1994,200041,춘천시 봉의동 ,15,-,033) 259-6306,033) 254-1460,춘천시 봉의동 15,127.7301052,37.8856482,정좌표
research_lib_1.shp.csv,6,100,강원도인재개발원 도서실,강원,춘천시,전문,공공,-,2000,26465,춘천시 동면 만천3리 ,324-1,-,033) 248-6236,033) 254-1460,춘천시 동면 만천3리 324-1,127.7905867,37.87828071,정좌표
research_lib_1.shp.csv,7,100,강원발전연구원 정보자료실,강원,춘천시,전문,공공,-,0,200932,춘천시 중앙로1가 ,5  강원발전연구원 402호,www.rig.re.kr,033) 250-1315,033) 250-1319,춘천시 중앙로1가 5  강원발전연구원 402호,127.7301202,37.88378021,정좌표
research_lib_1.shp.csv,8,100,건강보험심사평가원도서관,강원,원주시,전문,민간,-,0,26464,강원도 원주시 혁신로 60 반곡동,강원도 원주시 반곡동 2047-10 건강보험심사평가원 HIRA 1동 2층 도서관,http://book.hira.or.kr,033-739-0221,,강원도 원주시 혁신로 60 반곡동강원도 원주시 반곡동 2047-10 건강보험심사평가원 HIRA 1동 2층 도서관,127.9805398,37.32245791,정좌표
research_lib_1.shp.csv,9,100,국립춘천박물관 도서실,강원,춘천시,전문,공공,-,1976,26464,춘천시 석사동 ,산27-1,-,033) 260-1528,033) 260-1529,춘천시 석사동 산27-1,127.7493424,37.86159776,인근좌표
research_lib_1.shp.csv,10,100,국민건강보험 전문도서관,강원,원주시,전문,공공,-,1984,200704,강원도 원주시 건강로 32 (반곡동),지하 1층 전문도서관,http://lib.nhis.or.kr,033-736-4117,033-749-6317,강원도 원주시 건강로 32 (반곡동)지하 1층 전문도서관,127.9868854,37.32580423,정좌표
research_lib_1.shp.csv,11,100,한국관광공사자료실,강원,원주시,전문,공공,-,2003,200702,강원도 원주시 세계로 10 (반곡동),한국관광공사 홍보관 3층 자료실,http://lib.knto.or.kr,033) 738-3737,033) 738-3740,강원도 원주시 세계로 10 (반곡동)한국관광공사 홍보관 3층 자료실,127.9909306,37.32441182,정좌표
research_lib_1.shp.csv,12,100,한림대부속춘천성심병원 도서실,강원,춘천시,전문,민간,-,0,449910,춘천시 교동 ,153,http://dl.hallym.or.kr,033) 240-5128,033) 256-6244,춘천시 교동 153,127.7395744,37.88374294,정좌표
research_lib_1.shp.csv,13,100,한림대학교 일본학연구소 일본학도서관,강원,춘천시,전문,민간,-,1990,413832,강원 춘천시 옥천동 한림대학교,일본학연구소,http://japan.hallym.ac.kr,033-248-3216,033-248-3219,강원 춘천시 옥천동 한림대학교일본학연구소,127.7328838,37.88430382,인근좌표
research_lib_1.shp.csv,14,100,(주)녹십자 자료실,경기,용인시,전문,민간,-,-,449912,용인시 구성면 보정리 ,303 개발본부,-,031) 260-9676,031) 260-9408,용인시 구성면 보정리 303 개발본부,128.0911232,36.07663181,정좌표
research_lib_1.shp.csv,15,100,(주)웅진씽크빅 도서실,경기,파주시,전문,민간,-,-,463711,파주시 교하읍 문발리 ,535-1 (주)웅진씽크빅 2F 도서실,-,031-956-7431,031-956-7577,파주시 교하읍 문발리 535-1 (주)웅진씽크빅 2F 도서실,129.2972347,35.4104357,정좌표
research_lib_1.shp.csv,16,100,KCC중앙연구소자료실,경기,용인시,전문,민간,-,2010,463867,용인시 기흥구 마북동 ,83,-,031) 288-3066,031) 288-3019,용인시 기흥구 마북동 83,127.1362881,37.31251543,정좌표
research_lib_1.shp.csv,17,100,KT정보통신도서관,경기,성남시,전문,민간,-,0,440745,성남시 분당구 정자동 ,KT본사,http://dl.kt.co.kr,031) 727-4882,031) 750-3195,성남시 분당구 정자동 KT본사,127.1130301,37.36739999,인근좌표
research_lib_1.shp.csv,18,100,NHN LIBRARY 1,경기,성남시,전문,민간,-,1967,16247,경기 성남시 분당구 정자동,"178-1 NHN 그린팩토리 1,2층",http://library1.nhncorp.com,031-784-4898,031-784-1000,"경기 성남시 분당구 정자동178-1 NHN 그린팩토리 1,2층",127.105189,37.35950706,정좌표
research_lib_1.shp.csv,19,100,SK케미칼연구소도서실,경기,수원시,전문,민간,-,-,480130,수원시 장안구 정자동 ,600,-,031-240-8311,031-245-1192,수원시 장안구 정자동 600,126.9821696,37.30754859,인근좌표
research_lib_1.shp.csv,20,100,가톨릭대성빈센트병원 도서실,경기,수원시,전문,민간,-,1970,14647,경기도 수원시 팔달구 중부대로 93 (지동),가톨릭대학교 성빈센트병원 별관 1층 의학도서실,http://www.cmcvincent.or.kr/,031-249-7748,031-258-2723,경기도 수원시 팔달구 중부대로 93 (지동)가톨릭대학교 성빈센트병원 별관 1층 의학도서실,127.0274499,37.27792307,정좌표
research_lib_1.shp.csv,21,100,가톨릭대의정부성모병원 도서실,경기,의정부시,전문,민간,-,1963,442781,의정부시 금오동 ,Jan-65,-,031) 820-3538,031) 847-2934,의정부시 금오동 65-1,127.0776903,37.75835589,정좌표
research_lib_1.shp.csv,22,100,가톨릭대학교 부천성모병원 의학정보실,경기,부천시,전문,민간,-,-,440210,경기도 부천시 소사로 327 소사동,327,http://cmcbclib.futurenuri.co.kr/,032-340-2209,032-340-2669,경기도 부천시 소사로 327 소사동327,126.7927117,37.48672551,정좌표
research_lib_1.shp.csv,23,100,경기도 행정도서관,경기,수원시,전문,공공,-,1962,440845,경기도 수원시 팔달구 효원로,1 (경기도청),-,031-8008-3759,031-8008-2158,경기도 수원시 팔달구 효원로1 (경기도청),127.0087455,37.27597203,정좌표
research_lib_1.shp.csv,24,100,경기도과학교육원 도서실,경기,수원시,전문,공공,-,2007,440843,수원시 장안구 송죽동 ,산26,-,031) 2501-753(716),031) 251-3548,수원시 장안구 송죽동 산26,127.007635,37.31114475,인근좌표
research_lib_1.shp.csv,25,100,경기도교육정보연구원 문헌자료실,경기,수원시,전문,공공,-,1996,446905,수원시 장안구 조원동 ,536-19,http://www.kerinet.re.kr,031) 249-0726,031) 249-0723,수원시 장안구 조원동 536-19,127.0169217,37.29558741,인근좌표
research_lib_1.shp.csv,26,100,경기도교육청 기록관,경기,수원시,전문,공공,-,2001,16258,경기 수원시 장안구 조원동,조원로 18 경기도교육정보기록원,http://www.goeia.go.kr,031) 240-6346,031) 240-6349,경기 수원시 장안구 조원동조원로 18 경기도교육정보기록원,127.0232364,37.29742814,정좌표
research_lib_1.shp.csv,27,100,경기도박물관 자료실,경기,용인시,전문,공공,-,1997,451882,용인시 기흥구 상갈동 ,85,-,031-783-0627,,용인시 기흥구 상갈동 85,127.1077546,37.26817873,인근좌표
research_lib_1.shp.csv,28,100,경기도사이버도서관,경기,수원시,전문,공공,-,-,413871,경기도 수원시 팔달구 신풍로23번길 68 신풍동,1층 경기도사이버도서관,https://www.library.kr/cyber/index.do,031-248-9890,031-246-4021,경기도 수원시 팔달구 신풍로23번길 68 신풍동1층 경기도사이버도서관,127.0104322,37.28386169,정좌표
research_lib_1.shp.csv,29,100,경기도외국어교육연수원 도서실,경기,평택시,전문,공공,-,-,442835,평택시 안중읍 학현리 ,09월 26일,www.gifle.go.kr,031) 680-3634,031) 680-3633,평택시 안중읍 학현리 9-26 ,126.930885,36.99425059,정좌표
research_lib_1.shp.csv,30,100,경기도율곡교육연수원 도서실,경기,파주시,전문,공공,-,1996,16207,파주시 법원읍 동문리 ,산25,-,031) 950-0037,031) 959-2512,파주시 법원읍 동문리 산25,126.8723128,37.86511384,정좌표
research_lib_1.shp.csv,31,100,경기문화재단 경기문화예술자료실,경기,수원시,전문,공공,-,-,449860,수원시 팔달구 인계동 ,1116  6층,-,031) 231-7281,031) 236-0223,수원시 팔달구 인계동 1116  6층,127.0359648,37.2658873,정좌표
research_lib_1.shp.csv,32,100,경기연구원 자료실,경기,수원시,전문,공공,-,-,431804,경기도 수원시 장안구 경수대로 1150 (파장동),신관 2층 경기연구원 정보자료실,http://library.gri.re.kr/,031-250-3261,031-250-3250,경기도 수원시 장안구 경수대로 1150 (파장동)신관 2층 경기연구원 정보자료실,126.9890396,37.31424954,정좌표
research_lib_1.shp.csv,33,100,고등기술연구원 정보자료실,경기,용인시,전문,민간,-,2007,12774,용인시 백암면 ,633-2,-,031) 330-7213,031) 330-7117,용인시 백암면 633-2,127.3737883,37.16507262,정좌표
research_lib_1.shp.csv,34,100,고려개발㈜ 자료실,경기,안양시,전문,민간,-,1945,427715,안양시 동안구 관양2동 ,954-2,-,031) 420-9932,031) 420-9026,안양시 동안구 관양2동 954-2,126.9737412,37.39296288,인근좌표
research_lib_1.shp.csv,35,100,고용노동연수원 자료실,경기,광주시,전문,공공,-,1972,427070,경기도 광주시 오포읍 봉골길 229,"(문형리, 고용노동연수원)",http://eltilibrary.koreatech.ac.kr,031-760-7806,031-760-7823,"경기도 광주시 오포읍 봉골길 229(문형리, 고용노동연수원)",127.1928608,37.36539574,정좌표
research_lib_1.shp.csv,36,100,교육과학기술정보 디지털도서관,경기,과천시,전문,공공,-,-,463040,과천시 중앙동 ,1,-,02) 2110-3840,,과천시 중앙동 1,126.9840709,37.42698065,정좌표
research_lib_1.shp.csv,37,100,국군1363부대,경기,과천시,전문,공공,-,2003,487821,경기 과천시 주암동,300번지,-,02-731-5441,,경기 과천시 주암동300번지,127.0260306,37.45081053,정좌표
research_lib_1.shp.csv,38,100,국군의무사령부 자료실,경기,성남시,전문,민간,-,1981,13829,성남시 분당구 율동 ,산13-4 사서함 100호,-,031) 725-5316,031) 902-2222,성남시 분당구 율동 산13-4 사서함 100호,127.1515647,37.39046859,인근좌표
research_lib_1.shp.csv,39,100,국립수목원 도서실,경기,포천시,전문,공공,-,2000,411719,포천군 소흘읍 직동리 ,Jul-51,-,031) 540-2039,031) 540-1049,포천군 소흘읍 직동리 51-7,127.1647279,37.7555171,정좌표
research_lib_1.shp.csv,40,100,국립현대미술관 미술도서실,경기,과천시,전문,공공,-,1946,427010,경기도 과천시 광명로 313 막계동,313 국립현대미술관,http://www.mmca.go.kr/,02-2188-6056,02-2188-6126,경기도 과천시 광명로 313 막계동313 국립현대미술관,127.0199301,37.43100365,정좌표
research_lib_1.shp.csv,41,100,국민건강보험공단일산병원의학도서실,경기,고양시,전문,공공,-,2007,415020,고양시 일산구 백석동 ,1232,www.medicalinfo.or.kr,031-900-3396,031-900-3399,고양시 일산구 백석동 1232,126.7927854,37.64557285,정좌표
research_lib_1.shp.csv,42,100,국사편찬위원회 자료정보실,경기,과천시,전문,공공,-,1982,427718,과천시 중앙동  ,2-6 국사편찬위원회,http://www.history.go.kr,02) 500-8244,02) 503-8857,과천시 중앙동  2-6 국사편찬위원회,126.9796896,37.42415138,정좌표
research_lib_1.shp.csv,43,100,김포우리병원 의학도서관,경기,김포시,전문,민간,-,-,441450,경기 김포시 걸포동,389-15,http://gwhospital.co.kr,031) 999-1928,031) 999-1899,경기 김포시 걸포동389-15,126.7107392,37.63208434,정좌표
research_lib_1.shp.csv,44,100,노동부 자료관,경기,과천시,전문,공공,-,2002,469861,경기 과천시 중앙동 노동부,정부제2종합청사내 3동 B105호 노동부자료관실,http://125.60.1.62/opweb/,02) 504-4335,,경기 과천시 중앙동 노동부정부제2종합청사내 3동 B105호 노동부자료관실,126.9778084,37.42476739,정좌표
research_lib_1.shp.csv,45,100,농업과학기술원 농업환경관,경기,수원시,전문,공공,-,1998,463774,수원시 권선구 수인로 ,150 농업과학기술원 ,-,031-290-0161,031-290-0105,수원시 권선구 수인로 150 농업과학기술원 ,126.9796607,37.27421516,인근좌표
research_lib_1.shp.csv,46,100,대순진리회 중앙도서관,경기,여주군,전문,민간,-,1988,449800,여주시 강천면 가야리 ,650-2 대순진리회 중앙도서관,-,031) 887-9311,031) 887-9345,여주시 강천면 가야리 650-2 대순진리회 중앙도서관,127.6914252,37.27718945,정좌표
research_lib_1.shp.csv,47,100,대진의료재단 분당제생병원 의학도서실,경기,성남시,전문,민간,-,-,445960,성남시 분당구 서현동 ,255-2 분당제생병원 도서실(별관3층),http://cafe.daum.net/medlib0457,031-779-0457,031-779-0459,성남시 분당구 서현동 255-2 분당제생병원 도서실(별관3층),127.1216011,37.38812246,정좌표
research_lib_1.shp.csv,48,100,대한지적공사 지적연수원 도서실,경기,용인시,전문,공공,-,-,449905,용인시 운학동 ,624,http://www.kcscctti.co.kr,031) 8006-7000,031) 8006-7029,용인시 운학동 624,127.2300921,37.22148822,정좌표
research_lib_1.shp.csv,49,100,동부한농화학농업기술연구소도서실,경기,화성시,전문,민간,-,1998,413874,화성시 정남면 보통리 ,175-1,-,031) 354-6810,031) 354-6820,화성시 정남면 보통리 175-1,126.9787901,37.18673209,정좌표
research_lib_1.shp.csv,50,100,동아제약연구소도서실,경기,용인시,전문,민간,-,0,420860,용인시 기흥구 상갈동 ,May-47,-,031-280-1312,031-282-9064,용인시 기흥구 상갈동 47-5,127.1082497,37.26512067,정좌표
research_lib_1.shp.csv,51,100,두루뫼박물관,경기,파주시,전문,민간,-,1979,427720,파주시 법원읍 법원4리 ,139-5,durumea.org,031) 958 - 6101,031) 958 - 7433,파주시 법원읍 법원4리 139-5,126.9439563,37.86849323,정좌표
research_lib_1.shp.csv,52,100,뮤지엄만화규장각,경기,부천시,전문,민간,-,-,449776,경기도 부천시 원미구 길주로,1 한국만화박물관 2층,"http://www.komacon.kr/main/index.asp, http://www.comicslib.org/",032-310-3101,,경기도 부천시 원미구 길주로1 한국만화박물관 2층,126.7453855,37.50751177,정좌표
research_lib_1.shp.csv,53,100,법무부 도서실,경기,과천시,전문,공공,-,-,440816,과천시 중앙동 ,1 정부종합청사,-,02) 2110-3481,,과천시 중앙동 1 정부종합청사,126.9840709,37.42698065,정좌표
research_lib_1.shp.csv,54,100,법무연수원 도서실,경기,용인시,전문,공공,-,-,442190,용인시 구성면 언남동 ,39,-,031) 288-2258,031) 281-3143,용인시 구성면 언남동 39,127.1372019,37.29341524,정좌표
research_lib_1.shp.csv,55,100,보훈교육연구원 도서자료실,경기,수원시,전문,공공,-,2005,421705,수원시 장안구 영화동 ,1,-,031) 244-8191,031) 250-1589,수원시 장안구 영화동 1,127.0251954,37.29707373,정좌표
research_lib_1.shp.csv,56,100,봉녕사소요삼장도서관,경기,수원시,전문,민간,-,1999,420812,수원시 팔달구 우만동 ,248,-,031) 254-3371,031) 254-3371,수원시 팔달구 우만동 248,127.0380244,37.29092973,정좌표
research_lib_1.shp.csv,57,100,부천문화재단 판타스틱시네마테크,경기,부천시,전문,공공,-,2003,463707,부천시 오정구 오정동 ,오정구청 5층 한국영상자료원,-,032-684-3147,032-683-6213,부천시 오정구 오정동 오정구청 5층 한국영상자료원,126.9296223,35.77149951,정좌표
research_lib_1.shp.csv,58,100,부천시보육정보센터 유아전문도서관,경기,부천시,전문,공공,-,-,463856,부천시 원미구 상1동 ,394-2번지 복사골문화센터 1층 부천시보육정보센터,-,032-322-8686,032-326-8023,부천시 원미구 상1동 394-2번지 복사골문화센터 1층 부천시보육정보센터,126.7823518,37.5062503,인근좌표
research_lib_1.shp.csv,59,100,분당서울대병원 의학자료정보센터,경기,성남시,전문,공공,-,-,411837,성남시 분당구 구미동 ,300번지,-,031)787-1234,031)787-4044,성남시 분당구 구미동 300번지,127.12421,37.34977827,정좌표
research_lib_1.shp.csv,60,100,분당환경시민의모임 도서관,경기,성남시,전문,민간,-,0,449742,성남시 분당구 야탑동 ,285-8,-,031-702-5610,031-709-8387,성남시 분당구 야탑동 285-8,127.1358829,37.41229981,정좌표
research_lib_1.shp.csv,61,100,사법연수원 도서실,경기,고양시,전문,공공,-,0,449712,고양시 일산구 장항2동 ,872,-,031) 920-3191,031) 920-3239,고양시 일산구 장항2동 872,126.7727109,37.65187863,정좌표
research_lib_1.shp.csv,62,100,삼성전자 수원 정보자료실,경기,용인시,전문,민간,-,1980,412110,수원시 팔달구 매탄동,416,-,031-279-8542,,수원시 팔달구 매탄동416,127.0511166,37.2558352,정좌표
research_lib_1.shp.csv,63,100,삼성종합기술원 도서실,경기,용인시,전문,민간,-,1984,462100,용인시 기흥읍 농서리 ,산14,-,031-280-6509,,용인시 기흥읍 농서리 산14,127.1720721,37.2117306,정좌표
research_lib_1.shp.csv,64,100,서호도서관,경기,고양시,전문,민간,-,1995,446902,고양시 덕양구 용두동 ,산30-49,-,02) 354-5007,02) 382-2877,고양시 덕양구 용두동 산30-49,126.8993201,37.62330439,인근좌표
research_lib_1.shp.csv,65,100,성남시청 행정자료실,경기,성남시,전문,공공,-,-,422711,경기 성남시 중원구 여수동,200번지(성남대로 997),www.seongnam.go.kr,031-729-2214,031-729-2199,경기 성남시 중원구 여수동200번지(성남대로 997),127.1263986,37.41987788,정좌표
research_lib_1.shp.csv,66,100,성서학도서관,경기,용인시,전문,민간,-,-,443704,경기도 용인시 기흥구 한보라2로,197 (대한성서공회 반포센타),http://www.bskorea.or.kr/organ/pds/default.aspx,02) 2103-8802,02) 2103-8897,경기도 용인시 기흥구 한보라2로197 (대한성서공회 반포센타),127.1055083,37.24246294,정좌표
research_lib_1.shp.csv,67,100,세종병원도서실(혜원의료재단),경기,부천시,전문,민간,-,1988,463400,부천시 소사구 소사본2동 ,91-121,-,032-340-1812,032-340-1236,부천시 소사구 소사본2동 91-121,126.7823518,37.5062503,인근좌표
research_lib_1.shp.csv,68,100,수원지방법원 자료실,경기,수원시,전문,공공,-,1945,411410,수원시 영통구 원천동 ,80,-,031-210-1117,031-216-6295,수원시 영통구 원천동 80,127.052771,37.27634412,정좌표
research_lib_1.shp.csv,69,100,시공테크 전시 전문도서관,경기,성남시,전문,민간,-,1989,459711,경기도 성남시 분당구,판교역로 225-20 시공빌딩,http://www.sigongtech.co.kr,02-3438-0079,02-3438-0246,경기도 성남시 분당구판교역로 225-20 시공빌딩,127.1080696,37.40008145,정좌표
research_lib_1.shp.csv,70,100,시설안전기술공단 자료실,경기,고양시,전문,공공,-,1986,437080,고양시 일산구 대화동 ,2311,-,031) 910-4164,031) 910-4183,고양시 일산구 대화동 2311,126.7402714,37.67162196,정좌표
research_lib_1.shp.csv,71,100,쌍용자동차 자료실,경기,평택시,전문,민간,-,1980,448170,평택시 칠괴동 ,150-3 쌍용자동차 기술관리팀,-,031-610-3189,,평택시 칠괴동 150-3 쌍용자동차 기술관리팀,127.0942447,37.02756883,정좌표
research_lib_1.shp.csv,72,100,에너지경제연구원 자료실,경기,의왕시,전문,공공,-,1988,17089,경기 의왕시 내손동,665-1,http://library.keei.re.kr/,031-420-2197,031-421-0414,경기 의왕시 내손동665-1,126.9853182,37.38594183,정좌표
research_lib_1.shp.csv,73,100,에너지관리공단 자료실,경기,용인시,전문,공공,-,0,456824,경기 용인시 수지구 풍덕천2동 ,1157,http://lib.kemco.or.kr,031-260-4574,031-260-4559,경기 용인시 수지구 풍덕천2동 1157,127.0944693,37.31846046,정좌표
research_lib_1.shp.csv,74,100,용인정신병원의학도서실,경기,용인시,전문,민간,-,-,446796,경기도 용인시 기흥구 중부대로 940 (상하동),신관 3층 의학도서실,http://yonginmh.egentouch.com/main.do?action=main,031-288-0273,031-288-0184,경기도 용인시 기흥구 중부대로 940 (상하동)신관 3층 의학도서실,127.1545301,37.25103744,정좌표
research_lib_1.shp.csv,75,100,워치타워성서책자협회 도서실,경기,안성시,전문,민간,-,0,441350,안성시 공도읍 양기리 ,377,-,031) 690-0033,031) 618-1914,안성시 공도읍 양기리 377 ,127.1957672,37.00102737,정좌표
research_lib_1.shp.csv,76,100,유한양행 중앙연구소 자료실,경기,용인시,전문,민간,-,1991,463020,용인시 기흥구 공세동 ,416-1 유한양행 중앙연구소,-,031-899-4010,031-275-6147,용인시 기흥구 공세동 416-1 유한양행 중앙연구소,127.1102235,37.24124812,정좌표
research_lib_1.shp.csv,77,100,임업연구원 임목육종부 도서실,경기,수원시,전문,공공,-,-,472812,수원시 권선구 오목천동 ,Mar-44,-,031) 290-1181,031) 292-4458,수원시 권선구 오목천동 44-3,126.959787,37.25123076,정좌표
research_lib_1.shp.csv,78,100,㈜서영엔지니어링 자료실,경기,성남시,전문,민간,-,1964,427726,경기 성남시 분당구 수내동,6-3 서영빌딩,-,02) 6915-7024,02) 6915-7597,경기 성남시 분당구 수내동6-3 서영빌딩,127.1170047,37.37941387,정좌표
research_lib_1.shp.csv,79,100,중앙119구조대 도서실,경기,남양주시,전문,공공,-,-,427727,남양주시 별내면 덕송1리 ,190-2,-,031) 570-2034,031) 529-1119,남양주시 별내면 덕송1리 190-2,127.1316956,37.71420459,정좌표
research_lib_1.shp.csv,80,100,중앙공무원교육원 교육정보자료실,경기,과천시,전문,공공,-,1999,449844,경기 과천시 중앙동 중앙공무원교육원,2번지(교육원로118),http//lib.coti.go.kr,02-500-8526,02-500-8695,경기 과천시 중앙동 중앙공무원교육원2번지(교육원로118),126.9778084,37.42476739,정좌표
research_lib_1.shp.csv,81,100,중앙선거관리위원회 자료실,경기,과천시,전문,공공,-,1950,440711,과천시 중앙동 ,02월 03일,-,02) 504-2762,02) 507-4213,과천시 중앙동 2-3,126.9797748,37.42557408,정좌표
research_lib_1.shp.csv,82,100,지구촌교회 지혜의샘터도서관,경기,용인시,전문,민간,-,-,440711,용인시 수지구 신봉동 ,01월 01일,-,031-270-8296,02) 264-9200,용인시 수지구 신봉동 1-1,127.082836,37.32293521,정좌표
research_lib_1.shp.csv,83,100,지방행정연수원 도서관,경기,수원시,전문,공공,-,1995,13496,경기 수원시 장안구 파장동 지방행정연수원,184,-,031) 250-5361,031) 250-5369,경기 수원시 장안구 파장동 지방행정연수원184,126.9908232,37.31568835,정좌표
research_lib_1.shp.csv,84,100,지방혁신인력개발원 도서관,경기,수원시,전문,공공,-,0,441706,수원시 장안구 파장동 ,184,-,031) 250-5361,031) 250-5369,수원시 장안구 파장동 184,126.9908232,37.31568835,정좌표
research_lib_1.shp.csv,85,100,차의과학대학교 분당차병원 의학도서실,경기,성남시,전문,민간,-,0,435010,경기도 성남시 분당구 야탑로 59 야탑동,분당차병원 본원 B2 도서실,http://cha.futurenuri.co.kr/,031-780-5040,031-780-5045,경기도 성남시 분당구 야탑로 59 야탑동분당차병원 본원 B2 도서실,127.1253275,37.4098024,정좌표
research_lib_1.shp.csv,86,100,축산과학원 도서실,경기,수원시,전문,공공,-,-,463712,수원시 권선구 축산길 ,77,-,031) 290-1748,031) 290-1598,수원시 권선구 축산길 77,127.3024516,36.43680705,인근좌표
research_lib_1.shp.csv,87,100,축산물품질평가원 자료실 (구 축산물등급판정소),경기,군포시,전문,공공,-,-,463754,군포시 당동 ,424-6 2층,-,031) 390-5565,031) 390-5597,군포시 당동 424-6 2층,126.9419042,37.34609902,인근좌표
research_lib_1.shp.csv,88,100,포천중문의과대분당차병원도서실,경기,성남시,전문,민간,-,-,425790,성남시 분당구 야탑동 ,351번지,-,031-780-5040,031-780-5045,성남시 분당구 야탑동 351번지,127.1252272,37.41024146,정좌표
research_lib_1.shp.csv,89,100,한국가스공사 자료실,경기,성남시,전문,공공,-,0,429712,성남시 분당구 정자동 ,215 한국가스공사,-,031)710-0983,031)710-0984,성남시 분당구 정자동 215 한국가스공사,127.1172045,37.35509338,정좌표
research_lib_1.shp.csv,90,100,한국가스공사연구원자료실,경기,안산시,전문,공공,-,1983,411712,안산시 일동 ,638-1,-,031) 400-7459,031) 406-2645,안산시 일동 638-1,126.8742581,37.30687135,정좌표
research_lib_1.shp.csv,91,100,한국가스안전공사 자료실,경기,시흥시,전문,공공,-,0,461370,시흥시 대야동 ,332-1,-,031) 310-1266,031) 315-4362,시흥시 대야동 332-1,126.7849885,37.4492243,정좌표
research_lib_1.shp.csv,92,100,한국건설기술연구원 건설정보관,경기,고양시,전문,공공,-,0,461210,고양시 일산서구 대화동 ,2311,www.codil.or.kr / kict.codil.or.kr,031-910-0081~2,031-910-0071,고양시 일산서구 대화동 2311,126.7402714,37.67162196,정좌표
research_lib_1.shp.csv,93,100,한국국제협력단 자료실,경기,성남시,전문,민간,-,1950,437703,성남시 수정구 시흥동 ,298,http://lib.koica.go.kr/,031) 740-0114,031) 740-0655,성남시 수정구 시흥동 298,127.0994041,37.41527886,정좌표
research_lib_1.shp.csv,94,100,한국군사문제연구원 자료실,경기,성남시,전문,공공,-,0,467020,성남시 수정구 창곡동 ,사서함 122-11호,-,02) 405-2821,02) 404-0544,성남시 수정구 창곡동 사서함 122-11호,127.1365588,37.46977785,인근좌표
research_lib_1.shp.csv,95,100,한국농어촌공사 자료실,경기,의왕시,전문,공공,-,-,427711,의왕시 포일동 ,487,-,031) 420-4245,031) 422-7349,의왕시 포일동 487,126.9848453,37.3924477,정좌표
research_lib_1.shp.csv,96,100,한국도자재단 도자만권당,경기,이천시,전문,민간,-,1984,13539,이천시 관고동 ,산69-1,-,031-6450-551~2,031) 631-6647,이천시 관고동 산69-1,127.4263649,37.27496621,인근좌표
research_lib_1.shp.csv,97,100,한국마사회 자료실,경기,과천시,전문,공공,-,1945,411758,과천시 주암동 ,685,-,02) 509-1120~1,02)   509-1126,과천시 주암동 685,127.0167489,37.44785614,정좌표
research_lib_1.shp.csv,98,100,한국석유관리원 자료실,경기,성남시,전문,공공,-,1988,463746,경기도 성남시 분당구 안양판교로 1207 (백현동),한국석유관리원 자료실,http://www.kpetro.or.kr,031-789-0254,,경기도 성남시 분당구 안양판교로 1207 (백현동)한국석유관리원 자료실,127.0994022,37.38338593,정좌표
research_lib_1.shp.csv,99,100,한국시설안전공단 자료실,경기,고양시,전문,공공,-,1999,463500,고양시 일산구 대화동 ,2311,-,031) 910-4168,031) 910-4183,고양시 일산구 대화동 2311 ,126.7402714,37.67162196,정좌표
research_lib_1.shp.csv,100,100,한국식품연구원 도서실,경기,성남시,전문,공공,-,1990,463824,경기도 성남시 분당구 안양판교로1201번길,62,-,031) 780-9250,031) 780-9255,경기도 성남시 분당구 안양판교로1201번길62,127.0994022,37.38338593,인근좌표
research_lib_2.shp.csv,1,200,한국장애인고용공단 정보자료실,경기,성남시,전문,공공,-,1992,463908,성남시 분당구 구미동 ,구미로 173번길 59 한국장애인고용공단 정보자료실,http://libinfo.kead.or.kr,031) 728-7098,031) 728-7099,성남시 분당구 구미동 구미로 173번길 59 한국장애인고용공단 정보자료실,127.1226396,37.34821049,정좌표
research_lib_2.shp.csv,2,200,한국정보통신기술협회 기술정보실,경기,성남시,전문,공공,-,1994,437757,경기 성남시 분당구 서현동,267-2,http://www.tta.or.kr,031-724-0088,031-724-0089,경기 성남시 분당구 서현동267-2,127.1205735,37.38379682,정좌표
research_lib_2.shp.csv,3,200,한국지역난방공사 자료실,경기,성남시,전문,공공,-,0,463010,성남시 분당구 분당동 ,186,해당없음,031) 780-4228,031) 701-3171,성남시 분당구 분당동 186,127.1470466,37.36522279,정좌표
research_lib_2.shp.csv,4,200,한국철도기술연구원 철도기술정보관,경기,의왕시,전문,공공,-,1978,463791,경기 의왕시 월암동 한국철도기술연구원,신청사 철도기술정보관,library.krri.re.kr,031) 460-5124,031) 460-5029,경기 의왕시 월암동 한국철도기술연구원신청사 철도기술정보관,126.9573987,37.30906798,인근좌표
research_lib_2.shp.csv,5,200,한국토지주택공사 자료실,경기,성남시,전문,공공,-,0,431070,경기 성남시 분당구 정자동,217 한국토지주택공사 자료실,library.lh.or.kr/knhc,031) 738-8353,031) 738-8909,경기 성남시 분당구 정자동217 한국토지주택공사 자료실,127.1211326,37.35423314,정좌표
research_lib_2.shp.csv,6,200,한국학중앙연구원 도서관,경기,성남시,전문,공공,-,-,471701,성남시 분당구 운중동,하오개로 323,http://lib.aks.ac.kr,031-709-2727,031-779-2709,성남시 분당구 운중동하오개로 323,127.0514987,37.39189989,정좌표
research_lib_2.shp.csv,7,200,한림대성심병원도서실,경기,안양시,전문,민간,-,-,445890,안양시 동안구 평촌동 ,896,-,"031) 380-4085,7",031) 380-4086,안양시 동안구 평촌동 896,126.9618011,37.39150293,정좌표
research_lib_2.shp.csv,8,200,한양대구리병원의학학술정보실,경기,구리시,전문,민간,-,0,445850,구리시 교문동 ,249-1,-,031) 560-2147,031) 565-2249,구리시 교문동 249-1,127.1324228,37.60119265,정좌표
research_lib_2.shp.csv,9,200,해병대사령부 도서관,경기,화성시,전문,민간,-,-,641821,화성군 봉담면 유리 ,사서함 601-206-12호,-,031) 290-3195,,화성군 봉담면 유리 사서함 601-206-12호,126.9325708,37.1739733,인근좌표
research_lib_2.shp.csv,10,200,현대자동차 자동차정보센터,경기,화성시,전문,민간,-,0,641725,화성군 남양면 ,772-1,-,031) 368-5265,031) 369-5268,화성군 남양면 772-1,127.3679701,34.70888828,정좌표
research_lib_2.shp.csv,11,200,(사)지역문화공동체 경남정보사회연구소 자료실,경남,창원시,전문,민간,-,1945,51141,경남 창원시 봉곡동,(봉곡동 46-1) 봉곡사회교육센터 2층,http://kisingo.or.kr,055-265-0021,055-288-0047,경남 창원시 봉곡동(봉곡동 46-1) 봉곡사회교육센터 2층,128.65418,35.24938406,인근좌표
research_lib_2.shp.csv,12,200,경남통계사무소 통계자료관리센터,경남,창원시,전문,공공,-,1945,641914,창원시 신월동 ,103-2,-,055) 266-8854,055) 266-7522,창원시 신월동 103-2,128.6915645,35.23469746,정좌표
research_lib_2.shp.csv,13,200,경상남도교육연구정보원 문헌정보실,경남,창원시,전문,공공,-,1993,660985,경상남도 창원시 의창구 사림로111번길 20 (사림동),경상남도교육연구정보언 문헌정보실,http://www.gerii.go.kr,055-269-0734,055-269-0708,경상남도 창원시 의창구 사림로111번길 20 (사림동)경상남도교육연구정보언 문헌정보실,128.6858499,35.2451587,정좌표
research_lib_2.shp.csv,14,200,경상남도교육연수원 도서실,경남,창원시,전문,공공,-,1992,641241,경남 창원시 사림동 경상남도교육연수원,158,-,055) 279-9083,055) 263-1859,경남 창원시 사림동 경상남도교육연수원158,128.6864446,35.24646562,정좌표
research_lib_2.shp.csv,15,200,경상남도농업기술원,경남,진주시,전문,공공,-,1988,52732,경남 진주시 초전동,1085-1,lib.knrda.go.kr,055-771-6226,055-771-6219,경남 진주시 초전동1085-1,128.116747,35.21143681,정좌표
research_lib_2.shp.csv,16,200,경상남도의회 자료실,경남,창원시,전문,공공,-,1995,641844,창원시 북16로,창원시 의창구 상남로 290,http://councillib.gyeongnam.go.kr,055-211-7073,055-211-7079,창원시 북16로창원시 의창구 상남로 290,128.6947812,35.23643762,정좌표
research_lib_2.shp.csv,17,200,경상남도인재개발원 도서실,경남,진주시,전문,공공,-,-,641702,경상남도 진주시 월아산로 2026 (초전동),경상남도서부청사 인재개발원 5층,http://book.gyeongnam.go.kr,055-254-2086,055-254-2086,경상남도 진주시 월아산로 2026 (초전동)경상남도서부청사 인재개발원 5층,128.1209108,35.21288349,정좌표
research_lib_2.shp.csv,18,200,경상남도중앙사회교육센터 자료실,경남,창원시,전문,공공,-,1978,660929,창원시 중앙동 ,Jan-66,-,055) 263-4511,055) 263-4511,창원시 중앙동 66-1,127.950199,37.35038901,정좌표
research_lib_2.shp.csv,19,200,경상남도청 행정자료실,경남,창원시,전문,공공,-,1998,621900,창원시 사림동 ,1,-,055) 211-5837,055) 211-5839,창원시 사림동 1,128.6912808,35.23711243,정좌표
research_lib_2.shp.csv,20,200,공군교육사령부 도서관,경남,진주시,전문,공공,-,-,656714,진주시 금산면 속사리 ,사서함 306-3호,-,055-750-2961,055-759-6139,진주시 금산면 속사리 사서함 306-3호,128.1478216,35.19320093,인근좌표
research_lib_2.shp.csv,21,200,국립김해박물관 자료실,경남,김해시,전문,공공,-,2000,630808,김해시 구산동 ,232번지,-,055)320-6835,055)328-2468,김해시 구산동 232번지,128.8733794,35.24298912,정좌표
research_lib_2.shp.csv,22,200,대우조선해양㈜ 기술정보센터 자료실,경남,거제시,전문,민간,-,2006,630490,거제시 아주동 ,1,-,055)734-8979,055)735-1324,거제시 아주동 1,128.6957215,34.87220288,정좌표
research_lib_2.shp.csv,23,200,동마산병원도서실,경남,창원시,전문,민간,-,0,631423,마산시 석전2동 ,231-6,-,055-290-5173,055-293-3266,마산시 석전2동 231-6,35.233901,128.578361,실패
research_lib_2.shp.csv,24,200,동아세아문화재연구원 자료실,경남,창원시,전문,민간,-,-,656710,경남 마산시 양덕동,96-20 동문빌딩,http://www.feaci.or.kr/,055) 265-9150,055) 265-9154,경남 마산시 양덕동96-20 동문빌딩,128.5840815,35.23618418,정좌표
research_lib_2.shp.csv,25,200,마산합포구청 행정자료실,경남,창원시,전문,민간,-,-,641792,경남 마산시 중앙동3가,4-11(前 마산시청),-,055-220-4025,,경남 마산시 중앙동3가4-11(前 마산시청),128.5679192,35.19691338,정좌표
research_lib_2.shp.csv,26,200,삼성중공업거제조선소 기술정보센터,경남,거제시,전문,민간,-,-,641560,거제시 신현읍 장평리 ,530 설계관,-,055) 630-3289,055) 632-2160,거제시 신현읍 장평리 530 설계관,128.1450227,37.12450429,정좌표
research_lib_2.shp.csv,27,200,㈜두산중공업 중앙자료실,경남,창원시,전문,민간,-,-,621881,창원시 귀곡동 ,555,-,055) 278-3659,055) 278-8524,창원시 귀곡동 555,128.6084283,35.18031941,정좌표
research_lib_2.shp.csv,28,200,창원파티마병원의학도서실,경남,창원시,전문,민간,-,0,641831,창원시 명서동 ,212,-,055-270-1010-11,055-270-1021,창원시 명서동 212,128.6456793,35.23724169,정좌표
research_lib_2.shp.csv,29,200,하이에어코리아 자료실,경남,김해시,전문,민간,-,0,52852,김해시 진례면 담안리 ,1432-11,-,055-340-5000,,김해시 진례면 담안리 1432-11,128.7842182,35.24585188,정좌표
research_lib_2.shp.csv,30,200,한국기계연구원 재료기술연구소 도서실,경남,창원시,전문,공공,-,1977,641120,경남 창원시 상남동,66번지,-,055) 280-3174,055) 280-3189,경남 창원시 상남동66번지,128.6778885,35.21480742,정좌표
research_lib_2.shp.csv,31,200,한국저작권위원회 도서관,경남,진주시,전문,공공,-,2001,667942,경상남도 진주시 충의로 19,"(LH공사 1,3,5층)",-,055-792-0113,,"경상남도 진주시 충의로 19(LH공사 1,3,5층)",128.1447582,35.17901848,정좌표
research_lib_2.shp.csv,32,200,한국전기연구원 자료실,경남,창원시,전문,공공,-,0,645798,창원시 성주동 ,01월 28일,-,055) 280-1169,055) 280-1166,창원시 성주동 28-1,128.7182804,35.18916612,정좌표
research_lib_2.shp.csv,33,200,한국항공우주산업㈜ 기술정보실,경남,하동군,전문,민간,-,0,678895,사천시 사남면 유천리 ,802,-,055) 851-2799,055) 851-2799,사천시 사남면 유천리 802,128.0649786,35.07741668,정좌표
research_lib_2.shp.csv,34,200,해군 도서관,경남,창원시,전문,공공,-,1999,760400,진해시 현동,충정로 사서함 602-13,-,055-549-4514,,진해시 현동충정로 사서함 602-13,127.448535,36.34200751,인근좌표
research_lib_2.shp.csv,35,200,해인사도서관,경남,합천군,전문,민간,-,1987,730050,합천군 가야면 치인리 ,10,-,055) 934-3059,,합천군 가야면 치인리 10,128.0980132,35.80120072,정좌표
research_lib_2.shp.csv,36,200,경상북도교육연구원 장서실,경북,안동시,전문,공공,-,1900,712120,안동시 정하동 ,385(강남로 152),http://reading.gyo6.net,054) 840-2258,054) 859-4115,안동시 정하동 385(강남로 152),128.7186669,36.55093579,정좌표
research_lib_2.shp.csv,37,200,경상북도교육연수원 도서관,경북,구미시,전문,공공,-,1978,36759,구미시 남통동 ,110,-,054) 450-4340,054) 457-9941,구미시 남통동 110,128.3213072,36.12383036,정좌표
research_lib_2.shp.csv,38,200,경상북도교육정보센터 자료실,경북,경산시,전문,공공,-,1998,770800,경산시 계양동 ,478-3,-,053) 810-9916,,경산시 계양동 478-3,128.7442016,35.82298715,정좌표
research_lib_2.shp.csv,39,200,경상북도교육청 행정자료실,경북,안동시,전문,공공,-,0,36759,경상북도 안동시 풍천면 도청대로 511,경상북도교육청 행정자료실,http://library.moe.go.kr,054-805-3637,,경상북도 안동시 풍천면 도청대로 511경상북도교육청 행정자료실,128.5129408,36.57874514,정좌표
research_lib_2.shp.csv,40,200,경상북도문화재연구원 자료실,경북,영천시,전문,공공,-,0,36759,경북 영천시 금호읍,297-1,-,070-7113-9019,,경북 영천시 금호읍297-1,128.8655739,35.92958217,정좌표
research_lib_2.shp.csv,41,200,경상북도의회 자료실,경북,안동시,전문,공공,-,2005,780410,경상북도 안동시 풍천면 도청대로 455,경상북도 안동시 풍천면 갈전리 1155 경상북도청,-,053-602-5183,,경상북도 안동시 풍천면 도청대로 455경상북도 안동시 풍천면 갈전리 1155 경상북도청,128.5055932,36.57507303,정좌표
research_lib_2.shp.csv,42,200,경상북도청 행정자료실,경북,안동시,전문,공공,-,1911,39660,경상북도 안동시 풍천면 도청대로 455,경상북도 안동시 풍천면 갈전리 1155 경상북도청,-,054-880-2851,,경상북도 안동시 풍천면 도청대로 455경상북도 안동시 풍천면 갈전리 1155 경상북도청,128.5055932,36.57507303,정좌표
research_lib_2.shp.csv,43,200,국립경주문화재연구소 자료실,경북,경주시,전문,공공,-,-,790330,경주시 불국로,132,-,054-777-8855,054-777-8890,경주시 불국로132,129.3082275,35.78242698,정좌표
research_lib_2.shp.csv,44,200,농림축산검역본부도서관 (구 농림수산검역검사본부),경북,김천시,전문,공공,-,1956,718806,경상북도 김천시 혁신8로 177 (율곡동),농림축산검역본부 도서관,http://lib.qia.go.kr/,054-912-0349,054-912-0339,경상북도 김천시 혁신8로 177 (율곡동)농림축산검역본부 도서관,128.2008976,36.12640784,정좌표
research_lib_2.shp.csv,45,200,산업공학연구정보센터 도서실,경북,포항시,전문,공공,-,-,760250,포항시 남구 효자동 ,산32,-,054) 279-6411,054) 279-6799,포항시 남구 효자동 산32,129.3195678,36.01379066,인근좌표
research_lib_2.shp.csv,46,200,성베네딕도회왜관수도원 도서실,경북,칠곡군,전문,민간,-,-,730710,칠곡군 왜관읍 왜관리 ,134-1,-,054) 970-2000,054) 971-0605,칠곡군 왜관읍 왜관리 134-1,128.4023075,35.98882571,정좌표
research_lib_2.shp.csv,47,200,안동성소병원의학도서실,경북,안동시,전문,민간,-,0,730030,안동시 금곡동 ,177,-,054-850-8212,054-850-8210,안동시 금곡동 177,128.722825,36.56713075,정좌표
research_lib_2.shp.csv,48,200,제일모직 정보자료실,경북,구미시,전문,민간,-,-,718807,구미시 공단동 ,290,-,054) 468-2724,054) 468-2709,구미시 공단동 290,128.3664252,36.09102354,정좌표
research_lib_2.shp.csv,49,200,㈜코오롱기술연구소 기술정보실,경북,구미시,전문,민간,-,   -,790704,구미시 공단동 ,212,-,054) 469-3804,054) 462-9922,구미시 공단동 212,128.3685878,36.10762785,정좌표
research_lib_2.shp.csv,50,200,칠곡군청 구상문학관,경북,칠곡군,전문,공공,-,1987,790330,칠곡군 왜관읍 왜관6리 ,785-84,-,054-979-6447,054-973-0039,칠곡군 왜관읍 왜관6리 785-84,128.4071178,35.99462702,정좌표
research_lib_2.shp.csv,51,200,포스코건설 정보자료실,경북,포항시,전문,민간,-,-,790150,포항시 남구 괴동 ,포스코건설 b1,http://library.rist.re.kr/POscoenc/,054) 223-5271,054) 223-6339,포항시 남구 괴동 포스코건설 b1,129.4296902,35.96672617,인근좌표
research_lib_2.shp.csv,52,200,포항산업과학연구원,경북,포항시,전문,민간,-,-,790825,경북 포항시 남구 효자동,산32,http://library.rist.re.kr/RIST/,054-279-6411,054-279-6899,경북 포항시 남구 효자동산32,129.3195678,36.01379066,인근좌표
research_lib_2.shp.csv,53,200,포항상공회의소 자료실,경북,포항시,전문,민간,-,2003,791843,포항시 남구 상도동,10월 02일,-,054) 274-2233,054) 283-1823,포항시 남구 상도동10-2,129.3603459,36.018539,정좌표
research_lib_2.shp.csv,54,200,포항성모병원의학도서실,경북,포항시,전문,민간,-,1969,39660,포항시 남구 대잠동 ,270-1,www.pohangsmh.co.kr,054-289-4327,054-277-2072,포항시 남구 대잠동 270-1,129.3397302,36.01653895,정좌표
research_lib_2.shp.csv,55,200,포항중앙교회 포항중앙도서관 ,경북,포항시,전문,민간,-,1997,791704,경북 포항시 북구 죽도2동,610-2,www.pcpc.or.kr,054-271-5111,054-271-5009,경북 포항시 북구 죽도2동610-2,129.1957015,36.17554075,인근좌표
research_lib_2.shp.csv,56,200,한국도로공사자료실,경북,김천시,전문,공공,-,-,790909,경상북도 김천시 혁신8로 77 (율곡동),경상북도 김천시 율곡동  941 한국도로공사 자료실,-,054-811-4291,054-811-4299,경상북도 김천시 혁신8로 77 (율곡동)경상북도 김천시 율곡동  941 한국도로공사 자료실,128.1908098,36.12861773,정좌표
research_lib_2.shp.csv,57,200,한동대선린병원 의학도서실,경북,포항시,전문,민간,-,1995,500712,포항시 북구 대신동 ,Jul-69,-,054) 245-5417,054) 246-7612,포항시 북구 대신동 69-7,129.3674056,36.04764712,정좌표
research_lib_2.shp.csv,58,200,해병대교육훈련단 도서관,경북,포항시,전문,민간,-,1986,502702,포항시 남구 오천읍 세계리 ,사서함 209-132호,-,054) 290-1057,,포항시 남구 오천읍 세계리 사서함 209-132호,129.4302683,35.96392265,인근좌표
research_lib_2.shp.csv,59,200,광주과학기술원 도서관,광주,북구,전문,공공,-,1995,506802,북구 오룡동 ,첨단 과기로 201 ,http://library.gist.ac.kr,062) 715-2087,062) 715-2088,북구 오룡동 첨단 과기로 201 ,126.8486572,35.22845018,인근좌표
research_lib_2.shp.csv,60,200,광주광역시 자료관,광주,서구,전문,공공,-,1986,501701,서구 치평동 내방로 ,111,http://refer.gjcity.net,"062-613-2841, 2842",062-613-2843,서구 치평동 내방로 111,126.8531731,35.15907204,정좌표
research_lib_2.shp.csv,61,200,광주광역시지방공무원교육원 자료실,광주,광산구,전문,공공,-,-,503715,광주 광산구 소촌동,232-2,www.edu.gicity.net,062-613-7085,062-940-8007,광주 광산구 소촌동232-2,126.7961546,35.15990902,정좌표
research_lib_2.shp.csv,62,200,광주광역시청 행정자료실,광주,동구,전문,공공,-,2011,506251,동구 계림1동 ,505-900,-,062) 613-2842,062) 606-2719,동구 계림1동 505-900,126.9166859,35.16144632,정좌표
research_lib_2.shp.csv,63,200,광주기독병원 의학도서관,광주,남구,전문,민간,-,1981,501023,남구 양림동 ,264,-,062) 650-5230,062) 671-7443,남구 양림동 264,126.9121042,35.13667803,정좌표
research_lib_2.shp.csv,64,200,광주시유아교육진흥원 꿈샘도서관,광주,광산구,전문,공공,-,0,500150,광주광역시 광산구),장덕로 34,-,062-960-6577,,광주광역시 광산구)장덕로 34,126.8127204,35.19493743,정좌표
research_lib_2.shp.csv,65,200,광주은행 도서실,광주,동구,전문,민간,-,2015,61485,동구 금남로 3가 ,07월 12일,-,062) 239-5064,062) 232-4677,동구 금남로 3가 7-12,126.9162435,35.14957727,인근좌표
research_lib_2.shp.csv,66,200,국립광주박물관 도서실,광주,북구,전문,공공,-,2013,61755,북구 매곡동 ,산83-3,-,062) 570-7061,062) 570-7015,북구 매곡동 산83-3,126.8846638,35.19142477,인근좌표
research_lib_2.shp.csv,67,200,국립아시아문화전당도서관,광주,동구,전문,공공,-,1957,61186,광주광역시 동구 문화전당로 38 광산동,국립아시아문화전당,http://library.acc.go.kr,062-601-4844,062-601-4059,광주광역시 동구 문화전당로 38 광산동국립아시아문화전당,126.9200115,35.14800054,정좌표
research_lib_2.shp.csv,68,200,세계김치연구소 도서실(김치움: 김치정보실),광주,남구,전문,공공,-,0,501758,광주광역시 남구 김치로 86 임암동,세계김치연구소 도서실김치움,http://kimchium.wikim.re.kr/,062-610-1838,,광주광역시 남구 김치로 86 임암동세계김치연구소 도서실김치움,126.8659406,35.10826198,정좌표
research_lib_2.shp.csv,69,200,전남대학교 박물관 자료실,광주,북구,전문,민간,-,1958,700712,광주광역시 북구 용봉로 77 용봉동,전남대학교 박물관 도서실,http://museum.chonnam.ac.kr,062-530-3585,062-530-3589,광주광역시 북구 용봉로 77 용봉동전남대학교 박물관 도서실,126.9015827,35.17651747,정좌표
research_lib_2.shp.csv,70,200,전남발전연구원 지식정보센터,광주,동구,전문,공공,-,-,706041,광주 동구 금남로1가 전일빌딩,6층,-,061-280-3980,062-236-2771,광주 동구 금남로1가 전일빌딩6층,126.9186237,35.14809783,인근좌표
research_lib_2.shp.csv,71,200,계명대학교 의학도서관,대구,중구,전문,민간,-,2007,704716,중구 달성로 ,56,medlib@dsmc.or.kr,053) 580-3723,053) 580-3785,중구 달성로 56,128.5825192,35.87017531,정좌표
research_lib_2.shp.csv,72,200,국립대구박물관 도서실,대구,수성구,전문,공공,-,2013,711873,수성구 황금동 ,산41,-,053) 768-6052,053) 760-0668,수성구 황금동 산41,128.6376827,35.84686409,인근좌표
research_lib_2.shp.csv,73,200,대구가정법원 도서실,대구,달서구,전문,공공,-,-,706837,대구광역시 달서구 장산남로,30 (대구가정법원) 9층 도서실,http://dgfamily.scourt.go.kr,053-570-2131,053-570-2132,대구광역시 달서구 장산남로30 (대구가정법원) 9층 도서실,128.5275685,35.85306274,정좌표
research_lib_2.shp.csv,74,200,대구경북과학기술원 도서관,대구,달성군,전문,공공,-,1962,706714,대구광역시 달성군 현풍면 테크노중앙대로 333 ,대구경북과학기술원 학술정보관,http://www.library.dgist.ac.kr,053-785-1171,053-785-1179,대구광역시 달성군 현풍면 테크노중앙대로 333 대구경북과학기술원 학술정보관,128.4619245,35.70420649,정좌표
research_lib_2.shp.csv,75,200,대구경북연구원 정보자료실,대구,수성구,전문,공공,-,1985,700422,수성구 중동로 ,246 대동타워 18층 커뮤니케이션센터,-,053) 770-5030,053) 770-5079,수성구 중동로 246 대동타워 18층 커뮤니케이션센터,127.3972347,36.48591614,정좌표
research_lib_2.shp.csv,76,200,대구고등법원 도서실,대구,수성구,전문,공공,-,2004,705817,대구광역시 수성구 동대구로,364 (대구고등법원),http://dggodung.scourt.go.kr,053-757-6704,053-742-5487,대구광역시 수성구 동대구로364 (대구고등법원),128.6284867,35.86214761,정좌표
research_lib_2.shp.csv,77,200,대구광역시공무원교육원 도서실,대구,중구,전문,공공,-,1992,701450,대구 중구 동인동2가,177-4,-,053) 803-5228,053) 803-5249,대구 중구 동인동2가177-4,128.6060328,35.8694646,정좌표
research_lib_2.shp.csv,78,200,대구광역시교육연구정보원 (구 대구광역시교육정보원),대구,남구,전문,공공,-,0,700714,남구 삼각지길 ,200번지,http://www.deii.or.kr/,053-606-6588,053-606-6599,남구 삼각지길 200번지,129.0910155,35.12902182,인근좌표
research_lib_2.shp.csv,79,200,대구광역시교육연수원자료실,대구,동구,전문,공공,-,-,702073,대구 동구 신무동,산116,http://dls.tgedu.net/DLS/dl_school/Main/index.jsp?school_code=236,053) 980-5472,053) 983-6998,대구 동구 신무동산116,128.6604339,35.99909041,정좌표
research_lib_2.shp.csv,80,200,대구광역시의회 자료실,대구,중구,전문,공공,-,2000,701020,중구 동인동 1가 ,1,-,053) 803-5047,053) 803-5046,중구 동인동 1가 1,128.6012618,35.87126828,정좌표
research_lib_2.shp.csv,81,200,대구도시개발공사 자료실,대구,북구,전문,공공,-,2006,704380,북구 고성동 3가 ,01월 01일,-,053-350-0116,053-350-0390,북구 고성동 3가 1-1,128.5896843,35.88287607,정좌표
research_lib_2.shp.csv,82,200,대구동일교회 도서관,대구,동구,전문,민간,-,1989,702816,동구 신천3동 ,147-1,http://www.korsa.or.kr/asp/dongil/,053-755-6003,053-755-6085,동구 신천3동 147-1,128.6237832,35.86793903,정좌표
research_lib_2.shp.csv,83,200,대구보훈병원 의학도서실,대구,달서구,전문,공공,-,1973,700180,대구 달서구 도원동,748 대구보훈병원 의학도서실,-,053-630-7846,,대구 달서구 도원동748 대구보훈병원 의학도서실,128.5521349,35.80287768,정좌표
research_lib_2.shp.csv,84,200,대구시 여성회관 도서실,대구,북구,전문,민간,-,-,706712,북구 노원3가 ,483번지 대구여성회관 도서실,-,053-803-5391,053-803-5399,북구 노원3가 483번지 대구여성회관 도서실,129.0212768,35.23203171,인근좌표
research_lib_2.shp.csv,85,200,대구시청 작은도서관,대구,중구,전문,공공,-,1967,701010,대구 중구 동문동,9-2번지 1층 대구시청 작은도서관,http://lib.daegu.go.kr/,053)803-5681,053)803-5683,대구 중구 동문동9-2번지 1층 대구시청 작은도서관,128.600413,35.87158259,정좌표
research_lib_2.shp.csv,86,200,대구은행 도서실,대구,수성구,전문,민간,-,1950,702702,수성구 수성2가 ,118 대구은행본점건물 7층,-,053) 740-2068,053) 740-6976,수성구 수성2가 118 대구은행본점건물 7층,128.6611082,35.83410413,인근좌표
research_lib_2.shp.csv,87,200,대구파티마병원 의학도서관,대구,동구,전문,민간,-,2009,706090,동구 신암동 ,576-31 대구파티마병원,http://203.237.60.110/asp/DFHML,053) 940-7067,053) 940-8004,동구 신암동 576-31 대구파티마병원,128.6240517,35.88421054,정좌표
research_lib_2.shp.csv,88,200,동북지방통계청 자료실,대구,북구,전문,공공,-,2014,42032,북구 산격4동 ,1449-1 (경북도청 내),-,053) 609-6518,053) 956-0789,북구 산격4동 1449-1 (경북도청 내),128.6022785,35.89276023,정좌표
research_lib_2.shp.csv,89,200,무학도서관,대구,수성구,전문,공공,-,1981,42415,대구 수성구 지산동,720번지,-,053-804-3586,,대구 수성구 지산동720번지,128.6341018,35.82954605,정좌표
research_lib_2.shp.csv,90,200,아트도서관,대구,수성구,전문,민간,-,-,701750,"대구광역시 수성구 공경로 70 (만촌동, 만촌보성타운아파트)",상가402동 아트도서관,http://www.artbook.itrocks.kr/,053-952-5252,053-755-0032,"대구광역시 수성구 공경로 70 (만촌동, 만촌보성타운아파트)상가402동 아트도서관",128.6434026,35.87477262,정좌표
research_lib_2.shp.csv,91,200,영남대의료원 의학도서관,대구,남구,전문,민간,-,0,700443,대구광역시 남구 현충로 170 (대명동),영남대학교 의과대학 의학도서관,http://medlib.yu.ac.kr,053-640-6834,053-651-0394,대구광역시 남구 현충로 170 (대명동)영남대학교 의과대학 의학도서관,128.5816193,35.84745948,정좌표
research_lib_2.shp.csv,92,200,영남일보 조사부,대구,동구,전문,민간,-,0,701310,동구 신천동 ,111,-,053) 757-5291,053) 742-7984,동구 신천동 111,128.6251959,35.86966437,정좌표
research_lib_2.shp.csv,93,200,천주교대구대교구청 도서실,대구,중구,전문,민간,-,2011,41200,중구 남산동 ,225-1,-,053) 250-3016,053) 253-8840,중구 남산동 225-1,128.5871694,35.8607324,정좌표
research_lib_2.shp.csv,94,200,한국교육학술정보원 자료실,대구,동구,전문,공공,-,-,704802,대구광역시 동구,동내로 64 혁신도시 내,-,053)714-0549,053)714-0192,대구광역시 동구동내로 64 혁신도시 내,128.7358405,35.87677595,정좌표
research_lib_2.shp.csv,95,200,한국장학재단 도서실,대구,동구,전문,공공,-,1900,702010,대구광역시 동구 신암로 125 신암동,대구광역시 동구 신암로 125 9층 도서실,http://lib.kosaf.go.kr,053-238-2080,,대구광역시 동구 신암로 125 신암동대구광역시 동구 신암로 125 9층 도서실,128.6129509,35.88117121,정좌표
research_lib_2.shp.csv,96,200,한국토지주택공사 대구경북지역본부 도서실,대구,달서구,전문,공공,-,-,305156,달서구 도원동 ,1445,-,053) 603-2536,,달서구 도원동 1445,128.5437566,35.80764405,정좌표
research_lib_2.shp.csv,97,200,한국패션센터 자료실,대구,북구,전문,공공,-,-,305345,북구 산격동 ,1670,-,053) 380-3366~7,053) 380-3368,북구 산격동 1670,128.6119444,35.9060424,정좌표
research_lib_2.shp.csv,98,200,(주)한화 종합연구소 자료실,대전,유성구,전문,민간,-,1995,305738,유성구 외삼동 ,Jan-52,-,042-829-2613,042-829-2623,유성구 외삼동 52-1,127.3215945,36.40324783,정좌표
research_lib_2.shp.csv,99,200,KT&G 중앙연구원 도서실,대전,유성구,전문,공공,-,-,301723,유성구 신성동 ,302,-,042) 866-5633,042) 868-1138,유성구 신성동 302,127.3474546,36.38254216,정좌표
research_lib_2.shp.csv,100,200,LG화학/기술연구원 자료실,대전,유성구,전문,민간,-,2008,305811,유성구 문지동 ,104-1 LG화학기술연구원 도서실,-,042-866-2085,042-863-4774,유성구 문지동 104-1 LG화학기술연구원 도서실,127.3970918,36.38823302,정좌표
research_lib_3.shp.csv,1,300,가톨릭대대전성모병원 도서실,대전,중구,전문,민간,-,0,305806,중구 대흥동 ,520-2,-,042) 220-9685,042) 222-7925,중구 대흥동 520-2,127.4202418,36.32322032,정좌표
research_lib_3.shp.csv,2,300,국가수리과학연구소 도서관,대전,유성구,전문,공공,-,1969,305380,대전 유성구 전민동,463-1 KT대덕2연구센터 ,http://www.nims.re.kr,042-717-5700,042-864-5706,대전 유성구 전민동463-1 KT대덕2연구센터 ,127.3998977,36.4022827,정좌표
research_lib_3.shp.csv,3,300,국가핵융합연구소 자료실,대전,유성구,전문,공공,-,0,305705,대전 유성구 어은동,52,http://www.nfri.re.kr/,042) 879-6234,,대전 유성구 어은동52,127.3577083,36.37720482,정좌표
research_lib_3.shp.csv,4,300,국립문화재연구소 자료정보관,대전,유성구,전문,공공,-,1970,34060,유성구 문지동 ,472,http://www.nricp.go.kr,042) 860-9140,042) 861-5162,유성구 문지동 472,127.392795,36.39010377,정좌표
research_lib_3.shp.csv,5,300,국립중앙과학관 도서실,대전,유성구,전문,공공,-,1995,34044,유성구 구성동 ,Feb-32,www.science.go.kr,042) 601-7941,042) 601-7772,유성구 구성동 32-2,127.3779181,36.37418103,정좌표
research_lib_3.shp.csv,6,300,국방과학연구소 기술정보실,대전,유성구,전문,공공,-,1986,302789,대전광역시 유성구 북유성대로488번길 160 수남동,111,http://lib.add.re.kr,042-821-3763,042-823-3400,대전광역시 유성구 북유성대로488번길 160 수남동111,127.3065916,36.40897696,인근좌표
research_lib_3.shp.csv,7,300,금호석유화학중앙연구소 도서실,대전,유성구,전문,민간,-,-,301131,대전광역시 유성구 유성대로 1557 (화암동),금호석유화학(주)중앙연구소,-,042-865-8615,042-865-8797,대전광역시 유성구 유성대로 1557 (화암동)금호석유화학(주)중앙연구소,127.3848696,36.40778888,정좌표
research_lib_3.shp.csv,8,300,대전광역시청 행정자료실,대전,서구,전문,공공,-,0,305708,서구 둔산동 1420,대전광역시청 행정자료실(3층),-,042) 270-4213,042) 270-4220,서구 둔산동 1420대전광역시청 행정자료실(3층),127.3848364,36.35016577,정좌표
research_lib_3.shp.csv,9,300,대전연정국악문화회관 자료실,대전,중구,전문,공공,-,1998,302701,대전 중구 문화1동,1월 27일,www.daejeon.go.kr/yeonjeong,042) 220-0314,042) 220-0389,대전 중구 문화1동1-27,127.416089,36.3223514,정좌표
research_lib_3.shp.csv,10,300,동부하이텍 동부기술원,대전,유성구,전문,민간,-,2005,35208,유성구 문지동 ,103-2 동부기술원,-,042) 866-8114,042) 861-1583,유성구 문지동 103-2 동부기술원,127.4032386,36.39427614,정좌표
research_lib_3.shp.csv,11,300,문화재청 기록관(자료실),대전,서구,전문,공공,-,2000,302120,서구 둔산동,920 정부대전청사 2동 1405호,http://library.cha.go.kr,042-481-4770,042-481-4769,서구 둔산동920 정부대전청사 2동 1405호,127.3849208,36.36222174,정좌표
research_lib_3.shp.csv,12,300,병무청 행정자료실,대전,서구,전문,공공,-,0,305717,대전광역시 서구 청사로 189 (둔산동),2동 907호,http://mma.yes24library.com,042-481-2836,,대전광역시 서구 청사로 189 (둔산동)2동 907호,127.384904,36.36268274,정좌표
research_lib_3.shp.csv,13,300,산림청 자료실,대전,서구,전문,공공,-,2007,305340,서구 둔산동 ,920 정부대전청사 1동,-,042) 481-4267,042) 472-3224,서구 둔산동 920 정부대전청사 1동,127.3849208,36.36222174,정좌표
research_lib_3.shp.csv,14,300,삼양사중앙연구소 자료실,대전,유성구,전문,민간,-,1982,305150,대전 유성구 화암동 삼양그룹연구소,Feb-63,-,042) 865-8107,042) 865-8499,대전 유성구 화암동 삼양그룹연구소63-2,127.3748398,36.39499835,정좌표
research_lib_3.shp.csv,15,300,연구개발특구정보도서관 (구 대덕비즈니스정보센터),대전,유성구,전문,공공,-,1900,305348,대전광역시 유성구 대덕대로,593,http://www.dit.or.kr,042-865-7088~90,042-865-7075,대전광역시 유성구 대덕대로593,127.3781327,36.38618704,정좌표
research_lib_3.shp.csv,16,300,육군교육사령부 자료정보과,대전,유성구,전문,공공,-,-,302701,대전 유성구 추목동,사서함 78-100호,-,042-878-6947,,대전 유성구 추목동사서함 78-100호,127.3523825,36.41677346,인근좌표
research_lib_3.shp.csv,17,300,정보통신산업진흥원 대전자료실,대전,유성구,전문,공공,-,-,302701,대전 유성구 화암동,58-4 정보통신기술진흥센터 본관 2층 자료실,-,042-612-8781,,대전 유성구 화암동58-4 정보통신기술진흥센터 본관 2층 자료실,127.384219,36.40586814,정좌표
research_lib_3.shp.csv,18,300,조달청 도서실,대전,서구,전문,공공,-,-,301826,서구 둔산동 ,920 정부대전청사 3동,-,042) 481-7446,042) 472-2296,서구 둔산동 920 정부대전청사 3동,127.3849208,36.36222174,정좌표
research_lib_3.shp.csv,19,300,중소기업청 자료실,대전,서구,전문,공공,-,0,301131,서구 둔산동 ,920,-,042) 481-4328,042) 472-3261,서구 둔산동 920,127.3849208,36.36222174,정좌표
research_lib_3.shp.csv,20,300,증산도 사상연구소 도서관,대전,중구,전문,민간,-,1970,302120,중구 선화동 ,356-8,-,042) 222-0680,042) 222-0685,중구 선화동 356-8,127.4188592,36.32834237,정좌표
research_lib_3.shp.csv,21,300,충남교육연구정보원 도서실,대전,중구,전문,공공,-,2009,302847,중구 문화동 ,279-1,-,042) 580-3267,042) 581-2664,중구 문화동 279-1,127.4099803,36.31524764,인근좌표
research_lib_3.shp.csv,22,300,통계청 도서실,대전,서구,전문,공공,-,1946,302701,서구 둔산동,청사로 189 정부대전청사 3동 1304호,http://lib1.kostat.go.kr/,042-481-2406,042-481-2477,서구 둔산동청사로 189 정부대전청사 3동 1304호,127.384904,36.36268274,정좌표
research_lib_3.shp.csv,23,300,통계청 통계교육원도서관,대전,서구,전문,공공,-,1971,305701,대전광역시 서구 한밭대로,713 나라키움대전센터 통계센터 4층,https://www.kostat.go.kr/lib,042-366-6116,042-366-6155,대전광역시 서구 한밭대로713 나라키움대전센터 통계센터 4층,127.3785726,36.35868608,정좌표
research_lib_3.shp.csv,24,300,특허청 전자도서관,대전,서구,전문,공공,-,0,34141,대전광역시 서구 청사로,189 (정부대전청사),library.kipo.go.kr,042)481-5130,042)472-3462,대전광역시 서구 청사로189 (정부대전청사),127.384904,36.36268274,정좌표
research_lib_3.shp.csv,25,300,한국과학기술원 중앙도서관,대전,유성구,전문,공공,-,-,305343,대전광역시 유성구 대학로,291 (한국과학기술원) 중앙도서관(E9),http://library.kaist.ac.kr,042) 350-2233,042) 350-2230,대전광역시 유성구 대학로291 (한국과학기술원) 중앙도서관(E9),127.3671065,36.3711985,정좌표
research_lib_3.shp.csv,26,300,한국과학기술정보연구원,대전,유성구,전문,공공,-,-,305333,대전광역시 유성구 대학로 245 (어은동),콘텐츠큐레이션센터 정보자료관,https://kisti.re.kr,042-869-1872,,대전광역시 유성구 대학로 245 (어은동)콘텐츠큐레이션센터 정보자료관,127.3596778,36.36346265,정좌표
research_lib_3.shp.csv,27,300,한국기계연구원 도서관,대전,유성구,전문,공공,-,1990,305806,유성구 장동 ,171,http://library.kimm.re.kr,042) 868-7624,042) 868-7328,유성구 장동 171,127.359509,36.39692481,정좌표
research_lib_3.shp.csv,28,300,한국기초과학지원연구원 연구장비정보정책부,대전,유성구,전문,공공,-,1968,306711,유성구 어은동,52 과학로 113  한국기초과학지원연구원 연구1동 105호 성과확산팀,-,042) 865-3660,042) 865-3545,유성구 어은동52 과학로 113  한국기초과학지원연구원 연구1동 105호 성과확산팀,127.3577083,36.37720482,정좌표
research_lib_3.shp.csv,29,300,한국생명공학연구원 도서관,대전,유성구,전문,공공,-,0,305343,대전시 유성구 어은동 ,52,http://library.kribb.re.kr/,042) 860-4763,042) 860-4762,대전시 유성구 어은동 52,127.3577083,36.37720482,정좌표
research_lib_3.shp.csv,30,300,한국수자원공사 정보문화센터,대전,대덕구,전문,공공,-,-,305338,대덕구 연축동 ,산6-2,http://diglib.kwater.or.kr,042) 629-2472,042) 629-2469,대덕구 연축동 산6-2,127.4268277,36.39693161,정좌표
research_lib_3.shp.csv,31,300,한국에너지기술연구원 정보전산팀,대전,유성구,전문,공공,-,1959,305353,유성구 장동 ,Feb-71,http://library.kier.re.kr/,042) 860-3712,042) 860-3374 ,유성구 장동 71-2 ,127.3595133,36.38322024,정좌표
research_lib_3.shp.csv,32,300,한국원자력안전기술원 지식정보실,대전,유성구,전문,공공,-,-,305350,유성구 구성동 ,19,-,042) 868-0126,042) 868-0499,유성구 구성동 19,127.3688763,36.37447658,정좌표
research_lib_3.shp.csv,33,300,한국원자력연구원 기술정보실,대전,유성구,전문,공공,-,0,305350,유성구 대덕대로 ,989번길 111,http://kornis21.kaeri.re.kr,042) 868-2204,042) 861-6318,유성구 대덕대로 989번길 111,127.3747764,36.42624659,정좌표
research_lib_3.shp.csv,34,300,한국자원연구소 자료실,대전,유성구,전문,공공,-,0,305713,유성구 신성동 ,302,-,042) 868-3302,042) 868-3280,유성구 신성동 302,127.3474546,36.38254216,정좌표
research_lib_3.shp.csv,35,300,한국전자통신연구원 도서실,대전,유성구,전문,공공,-,1948,34132,유성구 가정동 ,161,-,042) 860-5807,042) 860-6653,유성구 가정동 161,127.3665206,36.3830433,정좌표
research_lib_3.shp.csv,36,300,한국조폐공사기술연구소 정보자료실,대전,유성구,전문,공공,-,1974,305348,유성구 가정동 ,35,-,042) 820-1600,042) 861-4000,유성구 가정동 35,127.3694198,36.3775389,정좌표
research_lib_3.shp.csv,37,300,한국지질자원연구원 지식정보실,대전,유성구,전문,공공,-,0,300720,대전광역시 유성구 과학로 124 가정동,A4동 2층 도서관,http://library.kigam.re.kr,042-868-3302,042-868-3280,대전광역시 유성구 과학로 124 가정동A4동 2층 도서관,127.3634409,36.37837628,정좌표
research_lib_3.shp.csv,38,300,한국천문연구원 자료실,대전,유성구,전문,공공,-,2005,300060,대전 유성구 화암동,Jan-61,http://www.kasi.re.kr,042-865-3230,042-865-3201,대전 유성구 화암동61-1,127.3752581,36.3994439,정좌표
research_lib_3.shp.csv,39,300,한국철도공사 자료관,대전,동구,전문,공공,-,-,302716,대전광역시 동구 중앙로,240 (한국철도공사),http://library.korail.go.kr,042) 615-3664,02-361-8267,대전광역시 동구 중앙로240 (한국철도공사),127.4359935,36.33170799,정좌표
research_lib_3.shp.csv,40,300,한국철도시설공단 KR자료실,대전,동구,전문,공공,-,0,305340,대전 동구 신안동,264,www.kr.or.kr,042) 607-3623,042) 607-3629,대전 동구 신안동264,127.4366449,36.33068848,정좌표
research_lib_3.shp.csv,41,300,한국통신인력개발본부 자료실,대전,서구,전문,공공,-,1994,34054,서구 괴정동 ,산14-1,-,042) 530-5635,042) 530-5603,서구 괴정동 산14-1,127.3710277,36.33763522,인근좌표
research_lib_3.shp.csv,42,300,한국표준과학연구원 기술정보실,대전,유성구,전문,공공,-,1989,34133,대전광역시 유성구,가정로 209 한국표준과학연구원,http://library.kriss.re.kr,042) 868-5434,042) 868-5439,대전광역시 유성구가정로 209 한국표준과학연구원,127.3676225,36.38490811,인근좌표
research_lib_3.shp.csv,43,300,한국한의학연구원자료정보실,대전,유성구,전문,공공,-,1999,305343,대전광역시 유성구 유성대로 1672 (전민동),한의학연구원 자료정보실,https://library.kiom.re.kr,042-868-9457,,대전광역시 유성구 유성대로 1672 (전민동)한의학연구원 자료정보실,127.3946416,36.39915887,정좌표
research_lib_3.shp.csv,44,300,한국항공우주연구원 자료실,대전,유성구,전문,공공,-,1976,305600,대전광역시 유성구 과학로 169-84 (어은동),한국항공우주연구원 총무정보팀 도서관,https://library.kari.re.kr,042-860-2151,042-870-3670,대전광역시 유성구 과학로 169-84 (어은동)한국항공우주연구원 총무정보팀 도서관,127.3552046,36.38144533,정좌표
research_lib_3.shp.csv,45,300,한국해양연구원 해양시스템안전연구소 도서실,대전,유성구,전문,공공,-,-,305353,유성구 장동 ,171 (신성로 104),library.moeri.re.kr,042) 866-3192,042) 866-3104,유성구 장동 171 (신성로 104),127.359509,36.39692481,정좌표
research_lib_3.shp.csv,46,300,한국화학연구원 정보전산팀,대전,유성구,전문,공공,-,-,305380,유성구 장동 ,100,-,042) 860-7744,042) 860-7699,유성구 장동 100  ,127.3608887,36.38722142,정좌표
research_lib_3.shp.csv,47,300,한전 원자력연료㈜ 자료실,대전,유성구,전문,민간,-,1921,619902,유성구 덕진동 ,493,-,042) 868-1136,042) 868-1136,유성구 덕진동 493,127.3725149,36.42807567,정좌표
research_lib_3.shp.csv,48,300,한전 전력연구원 자료실,대전,유성구,전문,공공,-,2012,49111,유성구 문지동 ,103-16,-,042) 865-5163,042) 865-5804,유성구 문지동 103-16,127.3910459,36.39226101,정좌표
research_lib_3.shp.csv,49,300,국립수산과학원 도서실,부산,기장군,전문,공공,-,0,608040,기장군 기장읍 시랑리 ,408-1,http;//www.nfrdi.go.kr,051)720-2826,051) 720-2829,기장군 기장읍 시랑리 408-1,129.2233279,35.19223162,정좌표
research_lib_3.shp.csv,50,300,국립해양박물관 해양도서관,부산,영도구,전문,공공,-,-,601723,부산광역시 영도구 해양로301번길 45 (동삼동),국립해양박물관 1층 해양도서관,https://lib.knmm.or.kr/,051-309-1882,051-309-1889,부산광역시 영도구 해양로301번길 45 (동삼동)국립해양박물관 1층 해양도서관,129.0802449,35.07856295,정좌표
research_lib_3.shp.csv,51,300,기술보증기금 도서실,부산,남구,전문,민간,-,-,607712,부산 남구 문현동,문현금융로 33번지,-,051-606-7382,0505-020-2015,부산 남구 문현동문현금융로 33번지,129.064097,35.14620504,정좌표
research_lib_3.shp.csv,52,300,김원묵기념 봉생병원 도서실,부산,동구,전문,민간,-,1968,600094,동구 좌천1동 ,68-11번지,www.korsa.or.kr/asp/bongseng,051-664-4017,051-664-4019,동구 좌천1동 68-11번지,129.0450674,35.12739514,인근좌표
research_lib_3.shp.csv,53,300,동래봉생병원의학도서실,부산,동래구,전문,민간,-,0,611071,동래구 안락1동 ,동래봉생병원,-,051-520-5542,051-531-6102,동래구 안락1동 동래봉생병원,129.1063694,35.19390643,인근좌표
research_lib_3.shp.csv,54,300,메리놀병원의학도서실,부산,중구,전문,민간,-,1999,614050,중구 대청동 4가 ,12번지,www.maryknoll.co.kr,051-461-2543,051-461-2742,중구 대청동 4가 12번지,129.0324848,35.1069222,인근좌표
research_lib_3.shp.csv,55,300,부산고등법원 도서실,부산,연제구,전문,공공,-,-,611089,연제구 거제1동 ,1850,-,051) 590-1166,051) 590-1170,연제구 거제1동 1850,129.0652671,35.19333376,인근좌표
research_lib_3.shp.csv,56,300,부산광역시 교육청 행정자료실,부산,부산진구,전문,공공,-,2007,47210,부산 부산진구 양정동,455-1,http://library.moe.go.kr/,051) 860-0684,051) 860-0689,부산 부산진구 양정동455-1,129.0649365,35.17595288,정좌표
research_lib_3.shp.csv,57,300,부산광역시과학교육원 과학도서실,부산,연제구,전문,공공,-,1987,611089,연제구 연산9동 ,3월 1일,-,051) 750-1294,051) 750-1226,연제구 연산9동 3-1,129.1003416,35.18240146,정좌표
research_lib_3.shp.csv,58,300,부산광역시교육연구정보원 문헌정보자료실,부산,부산진구,전문,공공,-,0,602827,부산광역시 부산진구 중앙대로 945 (양정동),부산교육연구정보원,http://busanedu.net,051-860-6134,051-860-6120,부산광역시 부산진구 중앙대로 945 (양정동)부산교육연구정보원,129.0717556,35.17456508,정좌표
research_lib_3.shp.csv,59,300,부산광역시교육연수원 도서실,부산,연제구,전문,공공,-,1991,611735,연제구 연산9동 ,3월 1일,www.beti.go.kr,051) 760-5610,051) 750-5559,연제구 연산9동 3-1,129.1003416,35.18240146,정좌표
research_lib_3.shp.csv,60,300,부산광역시아동보호종합센터 도서실,부산,서구,전문,공공,-,-,616810,서구 아미동2가 ,125,-,051) 240-6344,051) 244-0551,서구 아미동2가 125,129.0160911,35.10015989,인근좌표
research_lib_3.shp.csv,61,300,부산광역시의회 자료실,부산,연제구,전문,공공,-,1972,611735,부산 연제구 연산5동 부산광역시청,시의회 1층 의정자료실,http://lib.council.busan.kr/,051)888-8572,051)888-8389,부산 연제구 연산5동 부산광역시청시의회 1층 의정자료실,129.10181,35.18332699,정좌표
research_lib_3.shp.csv,62,300,부산광역시인재개발원 도서실,부산,북구,전문,공공,-,0,614050,부산 북구 금곡동,291-1,-,051) 366-7574,051) 366-7517,부산 북구 금곡동291-1,129.0168686,35.26657194,인근좌표
research_lib_3.shp.csv,63,300,부산광역시청 시정정보자료실,부산,연제구,전문,공공,-,-,617717,부산 연제구 연산5동 부산광역시청,시정정보자료실,library.busan.go.kr,051)888-3845~7,051)888-3849,부산 연제구 연산5동 부산광역시청시정정보자료실,129.0867273,35.17576281,인근좌표
research_lib_3.shp.csv,64,300,부산발전연구원 정보자료센터,부산,부산진구,전문,공공,-,0,614721,부산 부산진구 양정동,"273-20 상수도사업본부 8,9층",www.bdi.re.kr,051) 860-8850,051) 637-6295,"부산 부산진구 양정동273-20 상수도사업본부 8,9층",129.0723634,35.17517658,정좌표
research_lib_3.shp.csv,65,300,부산보훈병원도서실,부산,사상구,전문,공공,-,2006,608838,사상구 주례2동 ,235번지,-,051-601-6337-8,051-601-6339,사상구 주례2동 235번지,129.0069156,35.15384892,정좌표
research_lib_3.shp.csv,66,300,부산상공회의소 도서실,부산,부산진구,전문,민간,-,1999,612824,부산진구 범천1동 ,853-1,-,051) 990-7067,051) 645-3003,부산진구 범천1동 853-1,129.0622341,35.14771356,정좌표
research_lib_3.shp.csv,67,300,부산성모병원 의학도서관,부산,남구,전문,민간,-,2002,616738,남구 용호동 ,538-41,www.bsm.or.kr,051-933-7578,051-932-8611,남구 용호동 538-41,129.1099753,35.10971451,정좌표
research_lib_3.shp.csv,68,300,부산시립미술관 도서자료실,부산,해운대구,전문,공공,-,1991,602092,부산 해운대구 우1동,1413,http://art.busan.go.kr/,051-740-4257,051-740-4280,부산 해운대구 우1동1413,129.1369248,35.16607455,정좌표
research_lib_3.shp.csv,69,300,부산여성가족개발원 자료실 ,부산,북구,전문,공공,-,-,611721,부산광역시 북구 효열로,256 부산여성가족개발원 1층 정보자료실,www.bwf.re.kr,051-30-3440,051-363-3752,부산광역시 북구 효열로256 부산여성가족개발원 1층 정보자료실,129.0228827,35.26796229,정좌표
research_lib_3.shp.csv,70,300,부산위생병원도서실,부산,서구,전문,민간,-,-,600816,서구 서대신동 2가 ,382,http://www.korsa.or.kr/asp/pahlib,051-600-7783,051-242-0407,서구 서대신동 2가 382,129.0111796,35.11246844,정좌표
research_lib_3.shp.csv,71,300,부산지방변호사회 도서실,부산,연제구,전문,민간,-,0,617020,연제구 거제1동 ,부산법조타운빌딩 10층,-,051) 506-8503,,연제구 거제1동 부산법조타운빌딩 10층,129.0780082,35.1892349,인근좌표
research_lib_3.shp.csv,72,300,부산항만공사 자료실,부산,중구,전문,공공,-,1988,608828,중구 중앙동4가 ,79-79 한진해운빌딩 10층,-,051) 999-3069,051) 988-0888,중구 중앙동4가 79-79 한진해운빌딩 10층,129.0387125,35.1091888,인근좌표
research_lib_3.shp.csv,73,300,여성문화회관 도서실,부산,사상구,전문,민간,-,2004,608828,사상구 학장동 ,168-2,-,051) 320-8331,051) 326-8202,사상구 학장동 168-2,128.9899692,35.13991915,정좌표
research_lib_3.shp.csv,74,300,한국자산관리공사 캠코 열린도서관,부산,남구,전문,공공,-,1973,49111,부산광역시 남구,문현금융로 40 부산국제금융센터 3층 캠코 열린도서관,https://lib.kamco.or.kr,051-794-2951,051-794-2959,부산광역시 남구문현금융로 40 부산국제금융센터 3층 캠코 열린도서관,129.0656455,35.1471723,정좌표
research_lib_3.shp.csv,75,300,한국주택금융공사 도서자료실,부산,남구,전문,공공,-,0,600814,부산시 남구 문현금융로40(문현동) ,부산국제금융센터 한국주택금융공사 24층,www.hf.go.kr,051-663-8160,0505-036-0591,부산시 남구 문현금융로40(문현동) 부산국제금융센터 한국주택금융공사 24층,129.0656455,35.1471723,정좌표
research_lib_3.shp.csv,76,300,한국해양과학기술원 해양과학도서관,부산,영도구,전문,공공,-,-,110460,부산광역시 영도구 해양로 385 (동삼동),한국해양과학기술원 해양과학도서관,http://library.kiost.ac,051-664-3804,051-405-9330,부산광역시 영도구 해양로 385 (동삼동)한국해양과학기술원 해양과학도서관,129.0798896,35.07421495,정좌표
research_lib_3.shp.csv,77,300,한진중공업기술연구소 자료실,부산,중구,전문,민간,-,    ,150808,중구 중앙동4가 ,22-1 11층,-,051) 410-3367,051) 410-8481,중구 중앙동4가 22-1 11층,129.0371424,35.10470761,정좌표
research_lib_3.shp.csv,78,300,(사)국민문화연구소 자료실,서울,종로구,전문,민간,-,1991,135839,종로구 연건동 ,304번지,-,02-765-7651~2,02-766-0474,종로구 연건동 304번지,126.9995522,37.57643418,정좌표
research_lib_3.shp.csv,79,300,(재)충북학사 도서실,서울,영등포구,전문,민간,-,0,137898,서울 영등포구 당산동6가,121-64,-,02) 579-8653,02) 579-8654,서울 영등포구 당산동6가121-64,126.9071634,37.53292013,인근좌표
research_lib_3.shp.csv,80,300,(주)삼우설계 정보자료실,서울,강남구,전문,민간,-,-,135714,서울 강남구 대치4동 ,890-6 L,www.samoo.co.kr,02) 2184-5959,02) 2184-5916,서울 강남구 대치4동 890-6 L,127.0515153,37.50484581,정좌표
research_lib_3.shp.csv,81,300,(주)에이텍종합건축사사무소 자료실,서울,서초구,전문,민간,-,2003,100272,서울 서초구 양재2동,372-2 5층,-,02) 3462-6366,,서울 서초구 양재2동372-2 5층,127.0436642,37.47100356,정좌표
research_lib_3.shp.csv,82,300,(주)오리콤 두산매거진 자료실,서울,강남구,전문,민간,-,0,150790,강남구 논현동 ,105-7 두산빌딩 9층,-,02-510-4520,02-510-4501,강남구 논현동 105-7 두산빌딩 9층,127.0352737,37.51906583,정좌표
research_lib_3.shp.csv,83,300,CJ인재원 자료실,서울,중구,전문,민간,-,-,137792,중구 필동2가 ,101-1 CJ인재원,-,02) 2280-3070,02) 2280-3079,중구 필동2가 101-1 CJ인재원,126.9957125,37.55909852,정좌표
research_lib_3.shp.csv,84,300,KBS방송콘텐츠 도서정보실,서울,영등포구,전문,공공,-,1996,110280,영등포구 여의도동 ,18,-,02) 781-1668,02) 781-2439,영등포구 여의도동 18 ,126.9163572,37.52535107,정좌표
research_lib_3.shp.csv,85,300,KT R&D 센터 미래기술연구소 자료실,서울,서초구,전문,민간,-,1990,150876,서초구 우면동 ,17,-,02) 526-5252,02) 526-5786,서초구 우면동 17,127.0289986,37.4713452,정좌표
research_lib_3.shp.csv,86,300,LG상남도서관,서울,종로구,전문,민간,-,1991,158725,종로구 원서동 ,136번지,http://www.lg.or.kr,02-708-3700,02-708-3718,종로구 원서동 136번지,126.988427,37.57962739,정좌표
research_lib_3.shp.csv,87,300,NH투자증권 정보자료실 (구 우리투자증권),서울,영등포구,전문,민간,-,0,100011,영등포구 여의도동 ,04월 23일,-,02) 768-7579,02) 768-7966,영등포구 여의도동 23-4,126.9233355,37.52422353,정좌표
research_lib_3.shp.csv,88,300,SBS데이타정보부자료실,서울,양천구,전문,민간,-,1990,100999,양천구 목1동 ,SBS방송센터 데이타정보팀,-,02) 2113-3503,,양천구 목1동 SBS방송센터 데이타정보팀,126.8758257,37.53677908,인근좌표
research_lib_3.shp.csv,89,300,SC제일은행 도서실,서울,중구,전문,민간,-,1961,130020,서울 중구 충무로1가,53-1번지 SC제일은행 제일지점 3층 SC러닝센터 도서실,-,02-779-6586,02-753-1260,서울 중구 충무로1가53-1번지 SC제일은행 제일지점 3층 SC러닝센터 도서실,126.980463,37.56095142,정좌표
research_lib_3.shp.csv,90,300,SK Telecom 정보자료실,서울,중구,전문,민간,-,-,150950,서울 중구 을지로2가 SK텔레콤빌딩 ,11번지 18층 정보자료실,www.sktelecom.com,02)6100-0141,02-6100-7871,서울 중구 을지로2가 SK텔레콤빌딩 11번지 18층 정보자료실,126.9850856,37.56647286,정좌표
research_lib_3.shp.csv,91,300,가톨릭대 성바오로병원 의학도서관,서울,동대문구,전문,민간,-,-,134701,동대문구 전농동 ,620-56,-,02) 958-2347,02) 960-4914,동대문구 전농동 620-56,127.0434766,37.5792325,정좌표
research_lib_3.shp.csv,92,300,강남성심병원도서실,서울,영등포구,전문,민간,-,1968,110746,영등포구 대림1동 ,948-1,-,02-829-5091,02-846-9789,영등포구 대림1동 948-1,126.9086765,37.49328975,정좌표
research_lib_3.shp.csv,93,300,강동성심병원의학도서실,서울,강동구,전문,민간,-,-,100702,강동구 길동 ,445,-,02-2224-2172~3,"02-473-8101,2224-210",강동구 길동 445,127.1352192,37.5361153,정좌표
research_lib_3.shp.csv,94,300,강북삼성병원의학정보실,서울,종로구,전문,민간,-,1971,2447,서울 종로구 평동 강북삼성병원,의학정보실(서진빌딩 10층),http://lib.kbsmc.co.kr,02-2001-2793~5,02-2001-2797~8,서울 종로구 평동 강북삼성병원의학정보실(서진빌딩 10층),126.9989704,37.57067532,인근좌표
research_lib_3.shp.csv,95,300,경향신문사 자료실,서울,중구,전문,민간,-,1987,8308,중구 정동 ,22 경향신문 정보자료팀,-,02) 3701-1023,02) 3071-1029,중구 정동 22 경향신문 정보자료팀,126.9699668,37.5681599,정좌표
research_lib_3.shp.csv,96,300,경희의료원 의학도서실,서울,동대문구,전문,민간,-,1966,110280,서울특별시 동대문구 경희대로 23 (회기동),정보행정동 지하 2층,http://kmclib.khu.ac.kr,02-958-9073,02-958-9071,서울특별시 동대문구 경희대로 23 (회기동)정보행정동 지하 2층,127.0507402,37.59377356,정좌표
research_lib_3.shp.csv,97,300,고려대학교 구로병원 의학도서실,서울,구로구,전문,민간,-,-,138921,서울특별시 구로구 구로동로 148 구로동,새롬교육관 1층 의학도서실,http://www.kumcguro.egentouch.com,02-2626-1951,02-2626-2024,서울특별시 구로구 구로동로 148 구로동새롬교육관 1층 의학도서실,126.8847007,37.491123,정좌표
research_lib_3.shp.csv,98,300,공간종합건축사사무소 자료실,서울,종로구,전문,민간,-,-,110714,종로구 원서동 ,219,www.spacea.com,02) 3670-3361,02) 745-2677,종로구 원서동 219,126.9883352,37.57772741,정좌표
research_lib_3.shp.csv,99,300,광고정보센터 자료실,서울,송파구,전문,민간,-,2002,110760,송파구 신천동,7-11 한국광고문화회관 901호,www.adic.co.kr,02) 2144-0775,02) 2144-0759,송파구 신천동7-11 한국광고문화회관 901호,127.0996086,37.51597271,정좌표
research_lib_3.shp.csv,100,300,교보생명 경영자료실,서울,종로구,전문,민간,-,0,150986,종로구 종로1가 ,교보생명빌딩 10층,-,02) 721-3372,02) 721-3359,종로구 종로1가 교보생명빌딩 10층,126.9781366,37.57051344,인근좌표
research_lib_4.shp.csv,1,400,교육과학기술부 교육과학기술정보 디지털도서관,서울,종로구,전문,공공,-,1991,150874,종로구 세종로 ,77 정부중앙청사 1609호,http://library.mest.go.kr/,02)2100-6115,02)2100-6117,종로구 세종로 77 정부중앙청사 1609호,126.9758825,37.57540317,인근좌표
research_lib_4.shp.csv,2,400,교직원노동조합 자료실,서울,영등포구,전문,민간,-,2007,4522,서울 영등포구 영등포동5가 현대프라자빌딩,49-1  201호,-,02) 672-7419,02) 675-6184,서울 영등포구 영등포동5가 현대프라자빌딩49-1  201호,126.9066864,37.52220031,정좌표
research_lib_4.shp.csv,3,400,국가보훈처 행정자료실,서울,영등포구,전문,공공,-,1977,135856,서울 영등포구 여의도동,국회대로 62길 13,http://e-library.mpva.go.kr/,02) 2020-5345,02) 784-1087 ,서울 영등포구 여의도동국회대로 62길 13,126.9164749,37.52670289,인근좌표
research_lib_4.shp.csv,4,400,국가생명윤리정책연구원 도서관,서울,중구,전문,민간,-,2002,100769,서울특별시 중구 남대문로 113 (다동),동부다동빌딩 4층,http://bprlib.kr,02-737-6008,02-737-6006,서울특별시 중구 남대문로 113 (다동)동부다동빌딩 4층,126.9822828,37.56729671,정좌표
research_lib_4.shp.csv,5,400,국가안보전략연구소 자료실,서울,강남구,전문,공공,-,1980,138708,강남구 도곡동 ,467-23 인스토피아빌딩 18층,-,02) 572-7090,02) 565-3558,강남구 도곡동 467-23 인스토피아빌딩 18층,127.0512356,37.48674366,정좌표
research_lib_4.shp.csv,6,400,국가인권위원회 인권도서관,서울,중구,전문,공공,-,2008,110820,서울특별시 중구 삼일대로,340 (나라키움저동빌딩) 11층,https://library.humanrights.go.kr,02) 2125-9680~3,02) 2125-0916,서울특별시 중구 삼일대로340 (나라키움저동빌딩) 11층,126.9881843,37.56504654,정좌표
research_lib_4.shp.csv,7,400,국립경찰병원의학도서실,서울,송파구,전문,공공,-,-,121717,송파구 가락본동 ,58,-,02-3400-1126,02-3400-1111,송파구 가락본동 58,127.1234585,37.49623878,정좌표
research_lib_4.shp.csv,8,400,국립고궁박물관 자료실,서울,종로구,전문,공공,-,2004,158707,종로구 사직로 ,34(세종로1-57),http://www.gogung.go.kr,02) 3701-7531,02) 3701-7640,종로구 사직로 34(세종로1-57),126.9636785,37.57268249,인근좌표
research_lib_4.shp.csv,9,400,국립공원관리공단 자료실,서울,마포구,전문,공공,-,1988,137071,마포구 공덕동 ,252-2 태영빌딩 8층,-,02) 3279-2855,02) 3279-2804,마포구 공덕동 252-2 태영빌딩 8층,126.9536864,37.54693668,인근좌표
research_lib_4.shp.csv,10,400,국립과학수사연구소 자료실,서울,양천구,전문,공공,-,0,100857,양천구 신월7동 ,331-1,-,02) 2600-4755,02) 2600-4739,양천구 신월7동 331-1,126.8274268,37.52300502,정좌표
research_lib_4.shp.csv,11,400,국립국악원 국악자료실,서울,서초구,전문,공공,-,    ,110820,서초구 서초동,남부순환로 2364 국악박물관 3층,http://www.gugak.go.kr/,02-580-3080,02-580-3082,서초구 서초동남부순환로 2364 국악박물관 3층,127.0086277,37.47767495,정좌표
research_lib_4.shp.csv,12,400,국립극장 공연예술자료실,서울,중구,전문,공공,-,0,110820,서울특별시 중구 장충단로,59 (국립극장),-,02-2280-4025,02-2280-4027,서울특별시 중구 장충단로59 (국립극장),127.0004913,37.55399915,정좌표
research_lib_4.shp.csv,13,400,국립문화재단연구소 자료실,서울,종로구,전문,공공,-,-,130712,서울 종로구 세종로,1,-,02-737-5412,02) 720-0286,서울 종로구 세종로1,126.9765778,37.58625877,정좌표
research_lib_4.shp.csv,14,400,국립민속박물관 자료실,서울,종로구,전문,공공,-,2007,143711,종로구 세종로 ,삼청로 37,http://library.nfm.go.kr,02) 3704-3270,02) 3704-3272,종로구 세종로 삼청로 37,126.978764,37.57948428,정좌표
research_lib_4.shp.csv,15,400,국립산림과학원 도서실,서울,동대문구,전문,공공,-,-,100799,동대문구 청량리동 ,207,-,02) 961- 2587,02) 957-1846,동대문구 청량리동 207,127.0438195,37.59330447,정좌표
research_lib_4.shp.csv,16,400,국립서울병원 도서실,서울,광진구,전문,공공,-,-,142175,광진구 중곡3동 ,30-1 별관 1층,http://lib.snmh.go.kr,02-2204-0249,02-453-6372,광진구 중곡3동 30-1 별관 1층,127.0857669,37.56500388,정좌표
research_lib_4.shp.csv,17,400,국립의료원 의학정보실,서울,중구,전문,공공,-,1973,4383,중구 을지로 6가 ,18-79,-,02-2260-7055,02-2262-4866,중구 을지로 6가 18-79,127.0059854,37.56741374,정좌표
research_lib_4.shp.csv,18,400,국립재활원도서실,서울,강북구,전문,공공,-,2014,4383,강북구 수유5동 ,520,-,02-901-1647,02-902-3835,강북구 수유5동 520,127.0047847,37.64700626,인근좌표
research_lib_4.shp.csv,19,400,국립중앙박물관 도서관,서울,용산구,전문,공공,-,-,100703,서울특별시 용산구 서빙고로 137 용산동6가,168-6,http://www.museum.go.kr,02-2077-9324,02-2077-9943,서울특별시 용산구 서빙고로 137 용산동6가168-6,126.9825451,37.52465048,정좌표
research_lib_4.shp.csv,20,400,국립한글박물관 한글도서관,서울,용산구,전문,공공,-,0,1794,서울특별시 용산구 서빙고로 139 (용산동6가),국립한글박물관 한글도서관,http://nuri.hangeul.go.kr,02-2124-6461,,서울특별시 용산구 서빙고로 139 (용산동6가)국립한글박물관 한글도서관,126.9804862,37.52106866,정좌표
research_lib_4.shp.csv,21,400,국민은행 도서실,서울,중구,전문,민간,-,2006,130010,중구 남대문로 ,2가 9-1,-,(02)2073-8074,02) 2073-8091,중구 남대문로 2가 9-1,126.9826712,37.56463739,정좌표
research_lib_4.shp.csv,22,400,국민체육진흥공단 한국스포츠정책과학원 도서관,서울,노원구,전문,공공,-,1970,140701,서울특별시 노원구 화랑로 727 공릉동,한국스포츠정책과학원 도서관,https://www.sports.re.kr/lib,02-970-9524,,서울특별시 노원구 화랑로 727 공릉동한국스포츠정책과학원 도서관,127.105559,37.63619968,정좌표
research_lib_4.shp.csv,23,400,국방기술품질원 기술관리팀,서울,동대문구,전문,공공,-,-,140021,동대문구 청량리동 ,산5-7,-,02) 961-1582,02) 964-0198,동대문구 청량리동 산5-7,127.0407584,37.59214587,정좌표
research_lib_4.shp.csv,24,400,국방부 행정자료실,서울,용산구,전문,공공,-,-,140840,용산구 용산동 3가,1번지,-,02) 748-5039,02) 748-5058,용산구 용산동 3가1번지,126.9775457,37.53364843,정좌표
research_lib_4.shp.csv,25,400,국방부군사편찬연구소 도서실,서울,용산구,전문,공공,-,0,130650,용산구 용산동 1가 ,8,-,02) 709-3188,02) 709-3111,용산구 용산동 1가 8,126.9770895,37.53630724,정좌표
research_lib_4.shp.csv,26,400,국방부방위사업청 자료실,서울,용산구,전문,공공,-,-,137070,용산구 용산동 2가 ,5월 15일,-,02) 2079-6636,02) 773-7587,용산구 용산동 2가 5-15,126.9843885,37.54180436,정좌표
research_lib_4.shp.csv,27,400,국방품질관리소 기술지원실,서울,동대문구,전문,공공,-,1997,151818,동대문구 청량우체국 ,사서함 276호,-,02) 961-1489,02) 964-0198,동대문구 청량우체국 사서함 276호,127.0517856,37.58373544,인근좌표
research_lib_4.shp.csv,28,400,국제방송교류재단 자료실,서울,서초구,전문,공공,-,1995,150032,서초구 서초동 ,1467-80 아리랑국제방송,-,02) 3475-5033,,서초구 서초동 1467-80 아리랑국제방송,127.0080263,37.47909872,정좌표
research_lib_4.shp.csv,29,400,국제백신연구소 자료실,서울,관악구,전문,공공,-,1999,150743,관악구 봉천7동,서울대 연구공원 내,http://www.ivi.int,02-872-2801,02-881-1212,관악구 봉천7동서울대 연구공원 내,126.9508228,37.4654609,인근좌표
research_lib_4.shp.csv,30,400,근로복지공단 자료실,서울,영등포구,전문,공공,-,-,158701,영등포구 영등포동 ,94-267 ,-,02) 2670-0323,02) 6700-386,영등포구 영등포동 94-267 ,126.9010698,37.52074308,인근좌표
research_lib_4.shp.csv,31,400,금융감독원 자료실,서울,영등포구,전문,공공,-,-,156720,서울 영등포구 여의도동,금융감독원빌딩,-,02) 3145-5114,02) 785-3475,서울 영등포구 여의도동금융감독원빌딩,126.9294419,37.52849122,인근좌표
research_lib_4.shp.csv,32,400,기독교방송 자료실,서울,양천구,전문,민간,-,1961,100758,양천구 목동 ,917-1,-,02) 2650-7066,02) 2650-7067,양천구 목동 917-1,126.8748654,37.52829537,정좌표
research_lib_4.shp.csv,33,400,기상청 자료실,서울,동작구,전문,공공,-,0,110350,동작구 신대방동 ,460-18,http://book.kma.go.kr/,02) 2181-0572,,동작구 신대방동 460-18,126.9172973,37.49377817,정좌표
research_lib_4.shp.csv,34,400,기업은행 도서실,서울,중구,전문,민간,-,2003,121818,중구 을지로2가 50 기업은행 본점 ,16층,http://www.ibk.co.kr,02) 729-6602,02) 729-6601,중구 을지로2가 50 기업은행 본점 16층,126.9865357,37.56649182,정좌표
research_lib_4.shp.csv,35,400,김.장특허법률사무소 도서실,서울,종로구,전문,민간,-,2009,100250,종로구 운니동 ,114-31 서울빌딩 2층,-,02) 2122-3646,02) 763-7434,종로구 운니동 114-31 서울빌딩 2층,126.986981,37.57666085,정좌표
research_lib_4.shp.csv,36,400,김대중도서관,서울,마포구,전문,민간,-,1992,139703,마포구 동교동 ,178-9 ,http://www.kdjlibrary.org,02) 2123-6890,02) 320-7777,마포구 동교동 178-9 ,126.9294473,37.55686545,정좌표
research_lib_4.shp.csv,37,400,남산예술센터 예술교육정보자료관,서울,중구,전문,민간,-,1995,139711,서울 중구 예장동,8-19 남산예술센터 예술교육관,www.e-sac.or.kr,02-758-2036,02-6008-7347,서울 중구 예장동8-19 남산예술센터 예술교육관,126.9883255,37.55895343,정좌표
research_lib_4.shp.csv,38,400,노원구청 자료실,서울,노원구,전문,공공,-,2009,7057,서울 노원구 상계6.7동 노원구청,종합자료실,http://book.nowon.seoul.kr,02-2116-4245,02-2116-4610,서울 노원구 상계6.7동 노원구청종합자료실,127.0722769,37.66636668,인근좌표
research_lib_4.shp.csv,39,400,노원을지대학교병원 도서실,서울,노원구,전문,민간,-,0,100707,노원구 한글비석길,14 구: 서울 노원구 하계1동 280-1,http://lib.emc.ac.kr,02-970-8445,02-970-8003,노원구 한글비석길14 구: 서울 노원구 하계1동 280-1,127.0698985,37.63645203,정좌표
research_lib_4.shp.csv,40,400,농심식문화전문도서관,서울,동작구,전문,민간,-,-,137730,서울특별시 동작구 여의대방로 112 (신대방동),도연관 농심 식문화전문도서관,http://library.agroheart.co.kr,02-820-8299,02-810-8597,서울특별시 동작구 여의대방로 112 (신대방동)도연관 농심 식문화전문도서관,126.9188153,37.49680304,정좌표
research_lib_4.shp.csv,41,400,농협중앙회 도서실,서울,중구,전문,민간,-,0,151050,서울 중구 충정로1가 농업협동조합중앙회건물,75,-,02) 2080-6137,02) 2080-6139,서울 중구 충정로1가 농업협동조합중앙회건물75,126.9684256,37.56639643,인근좌표
research_lib_4.shp.csv,42,400,대검찰청 도서실,서울,서초구,전문,공공,-,-,150010,서초구 서초3동 ,1730-1,-,02) 3480-2516,02) 3480-2696,서초구 서초3동 1730-1,127.0047447,37.49360649,정좌표
research_lib_4.shp.csv,43,400,대교㈜ 정보자료실,서울,관악구,전문,민간,-,-,150716,관악구 봉천동 ,729-21 눈높이보라매센터,-,02) 829-0669,02) 829-0468,관악구 봉천동 729-21 눈높이보라매센터,126.9255698,37.49111576,정좌표
research_lib_4.shp.csv,44,400,대신경제연구소 정보자료실,서울,영등포구,전문,민간,-,-,100400,영등포구 여의도동 ,Aug-34,-,02) 769-3099,02) 769-2806,영등포구 여의도동 34-8,126.9288668,37.52121884,정좌표
research_lib_4.shp.csv,45,400,대우증권 도서실,서울,영등포구,전문,민간,-,-,135701,영등포구 여의도동 ,Mar-34,-,02) 768-3355,02) 785-5670,영등포구 여의도동 34-3,126.9296323,37.522254,정좌표
research_lib_4.shp.csv,46,400,대한간호협회 자료실,서울,중구,전문,민간,-,1962,137749,중구 쌍림동 ,Jul-88,-,02) 2260-2561,02) 2260-2569,중구 쌍림동 88-7 ,127.002954,37.56251057,정좌표
research_lib_4.shp.csv,47,400,대한건설협회 도서실,서울,강남구,전문,민간,-,-,137044,강남구 논현동 ,71-2 건설회관8층,-,02) 3485-8220,02) 542-6264,강남구 논현동 71-2 건설회관8층,127.0340967,37.51734197,정좌표
research_lib_4.shp.csv,48,400,대한무역투자진흥공사 무역자료실,서울,서초구,전문,공공,-,1954,137042,서초구 헌릉로 13,KOTRA,http://www.kotra.or.kr,02-3460-7405,02-3460-7937,서초구 헌릉로 13KOTRA,127.0451988,37.4651684,정좌표
research_lib_4.shp.csv,49,400,대한민국예술원 도서실,서울,서초구,전문,공공,-,2004,110170,서초구 반포4동 ,산94-1 ,-,02) 596-6216~7,02) 596-6209,서초구 반포4동 산94-1 ,127.00229,37.4966849,정좌표
research_lib_4.shp.csv,50,400,대한민국학술원 자료실,서울,서초구,전문,공공,-,-,136865,서초구 반포동 ,산94-1,-,02) 534-0737,,서초구 반포동 산94-1,127.00229,37.4966849,정좌표
research_lib_4.shp.csv,51,400,대한불교조계종 중앙기록관,서울,종로구,전문,민간,-,-,100743,종로구 견지동 ,45번지 한국불교역사문화기념관,http://lib.buddhism.or.kr,02-2011-1716,,종로구 견지동 45번지 한국불교역사문화기념관,126.9823078,37.573881,정좌표
research_lib_4.shp.csv,52,400,대한불교진각종 도서실,서울,성북구,전문,민간,-,1986,150603,성북구 하월곡2동 ,22,-,02) 913-0133,02) 913-0135,성북구 하월곡2동 22,127.0413578,37.60450837,정좌표
research_lib_4.shp.csv,53,400,대한상공회의소 자료실,서울,중구,전문,민간,-,-,140721,중구 남대문로4가 ,45,-,02-6050-3449,02-6050-3630,중구 남대문로4가 45,126.9738332,37.5605425,정좌표
research_lib_4.shp.csv,54,400,대한생명 경제연구원 정보자료실,서울,영등포구,전문,민간,-,-,100043,영등포구 여의도동 ,63로 50 한화금융센터_63 4층 한화생명 경제연구원 정보자료실,http://lib.hanwhalife.com,02-789-7319,02-789-7549,영등포구 여의도동 63로 50 한화금융센터_63 4층 한화생명 경제연구원 정보자료실,126.9399092,37.51966412,정좌표
research_lib_4.shp.csv,55,400,대한의사협회도서관,서울,용산구,전문,민간,-,-,100230,용산구 이촌1동 ,302-75,-,02-794-2474(182),02-795-2900,용산구 이촌1동 302-75,126.9661683,37.52064285,정좌표
research_lib_4.shp.csv,56,400,대한적십자사 도서실,서울,중구,전문,민간,-,-,150974,중구 남산동 3가 ,32,-,02) 755-9301,,중구 남산동 3가 32,126.9883057,37.56039521,인근좌표
research_lib_4.shp.csv,57,400,대한전기협회 자료실,서울,중구,전문,민간,-,0,138749,중구 수표동 ,11월 4일,-,02) 2274-1663,02) 2277-5174,중구 수표동 11-4,126.9904633,37.5677869,정좌표
research_lib_4.shp.csv,58,400,대한증권협회 증권연수원 자료실,서울,영등포구,전문,민간,-,-,110190,영등포구 여의도동 ,45-2 증권센터빌딩 12층,-,,,영등포구 여의도동 45-2 증권센터빌딩 12층,126.9276092,37.51904404,정좌표
research_lib_4.shp.csv,59,400,대한체육회 자료실,서울,송파구,전문,민간,-,-,157712,송파구 오륜동 ,올림픽회관 ,-,02) 2144-8059,,송파구 오륜동 올림픽회관 ,127.1272223,37.51632496,인근좌표
research_lib_4.shp.csv,60,400,대한출판문화협회 출판정보관리센터,서울,종로구,전문,민간,-,1954,100789,종로구 사간동 ,105-2,-,02-733-8402,,종로구 사간동 105-2,126.9798555,37.57647978,정좌표
research_lib_4.shp.csv,61,400,대한항공 도서실,서울,강서구,전문,민간,-,2006,3739,강서구 공항동 ,1370 대한항공빌딩 6층,-,02) 656-7948,,강서구 공항동 1370 대한항공빌딩 6층,126.8122435,37.54780615,정좌표
research_lib_4.shp.csv,62,400,도로교통공단 자료실,서울,중구,전문,공공,-,0,110715,중구 신당5동 ,171,http://www.koroad.or.kr,02) 2230-6186,02) 2230-6171,중구 신당5동 171,127.0243801,37.56368963,인근좌표
research_lib_4.shp.csv,63,400,동북아역사재단 자료센터,서울,서대문구,전문,공공,-,-,110110,서울특별시 서대문구 통일로 81 (미근동),농협생명빌딩 1층,http://hflib.kr,02-2012-6034,02-2012-6167,서울특별시 서대문구 통일로 81 (미근동)농협생명빌딩 1층,126.9686001,37.56236071,정좌표
research_lib_4.shp.csv,64,400,동아일보 조사연구팀,서울,종로구,전문,민간,-,1974,100855,종로구 세종로 ,139,-,02) 2020-0608,02) 361-0436,종로구 세종로 139,126.9776397,37.56953962,정좌표
research_lib_4.shp.csv,65,400,동양시멘트 자료실,서울,종로구,전문,민간,-,-,100728,종로구 서린동 ,70 알파빌딩 9층,-,02) 3770-1809,02) 3770-3096,종로구 서린동 70 알파빌딩 9층,126.9810837,37.56983395,정좌표
research_lib_4.shp.csv,66,400,디자인하우스㈜  자료실,서울,중구,전문,민간,-,-,150728,중구 장충동2가 ,186-210 파라다이스빌딩 4층,-,02) 2275-6151,02) 2275-7885,중구 장충동2가 186-210 파라다이스빌딩 4층,127.0041396,37.55980415,정좌표
research_lib_4.shp.csv,67,400,매일경제신문 조사부 자료실,서울,중구,전문,민간,-,1971,110360,중구 필동 ,30-1번지 ,-,02) 2000-2170~4,02) 2000-2179,중구 필동 30-1번지 ,126.992817,37.56048026,정좌표
research_lib_4.shp.csv,68,400,문화방송 도서실,서울,영등포구,전문,민간,-,1949,140160,영등포구  여의도동 ,31,-,02) 789-2839,02) 789-3985,영등포구  여의도동 31,126.9297927,37.52408971,정좌표
research_lib_4.shp.csv,69,400,문화체육관광부 자료관,서울,종로구,전문,공공,-,2007,158715,서울 종로구 와룡동,2-70 운영지원과 자료관,www.mcst.go.kr,02) 3704-9123,02) 3704-9129,서울 종로구 와룡동2-70 운영지원과 자료관,126.9969289,37.58226039,정좌표
research_lib_4.shp.csv,70,400,미국대사관 아메리칸센터,서울,용산구,전문,공공,-,2002,140120,용산구 남영동 ,10,-,02) 397-4605,02) 795-3606,용산구 남영동 10,126.9731579,37.54471432,인근좌표
research_lib_4.shp.csv,71,400,방송통신심의위원회 자료실,서울,양천구,전문,공공,-,1976,110793,서울특별시 양천구 목동동로,233 (한국방송회관) 17층 자료실,-,02) 3219-5295,02) 3219-5299,서울특별시 양천구 목동동로233 (한국방송회관) 17층 자료실,126.8713941,37.52698198,정좌표
research_lib_4.shp.csv,72,400,백범김구기념관 자료실,서울,용산구,전문,민간,-,-,150606,용산구 효창동 ,255,http://www.korsa.or.kr/asp/kimkoo/,02) 799-3431,02) 799-3466,용산구 효창동 255,126.9601965,37.54517222,정좌표
research_lib_4.shp.csv,73,400,보건복지부 자료실,서울,종로구,전문,공공,-,2011,4168,서울 종로구 계동 현대빌딩,보건복지부 기록관(자료실),http://library.mw.go.kr,"02)2023-7086, 7087",02)2023-7088,서울 종로구 계동 현대빌딩보건복지부 기록관(자료실),126.9989704,37.57067532,인근좌표
research_lib_4.shp.csv,74,400,보험개발원 자료실,서울,영등포구,전문,민간,-,0,121714,영등포구 여의도우체국 ,사서함 627호,-,02-3775-9115,02) 368-4099,영등포구 여의도우체국 사서함 627호,126.9146598,37.52076076,인근좌표
research_lib_4.shp.csv,75,400,북한이탈주민 정보 자료관,서울,마포구,전문,공공,-,1976,130742,서울특별시 마포구 새창로 7,SNU장학빌딩 5층 남북하나재단 정보자료관,-,02-3215-5785,02-3215-5729,서울특별시 마포구 새창로 7SNU장학빌딩 5층 남북하나재단 정보자료관,126.9509232,37.54247829,정좌표
research_lib_4.shp.csv,76,400,불교방송 자료조사부 자료실,서울,마포구,전문,민간,-,1995,137857,마포구 마포동 ,140 다보빌딩,-,02) 705-5152,02) 705-5403,마포구 마포동 140 다보빌딩,126.9450006,37.53837249,정좌표
research_lib_4.shp.csv,77,400,산업연구원 정보자료실,서울,동대문구,전문,공공,-,-,140893,서울 동대문구 청량리2동 산업연구원건물,연구조정실 자료편집팀,http://library.kiet.re.kr/,02-3299-3114,02-3299-3240,서울 동대문구 청량리2동 산업연구원건물연구조정실 자료편집팀,128.2415782,37.6422444,정좌표
research_lib_4.shp.csv,78,400,삼성경제연구소 경제정보센터,서울,서초구,전문,민간,-,1995,135710,서울 서초구 서초2동,1321-15 삼성생명 서초타워 30층,-,02) 3780-8126,02) 3780-8294,서울 서초구 서초2동1321-15 삼성생명 서초타워 30층,127.025762,37.49673452,정좌표
research_lib_4.shp.csv,79,400,삼성미술관 Leeum,서울,용산구,전문,민간,-,-,100814,용산구 한남동 ,747-18,-,02) 2014-6651,02) 2014-6659,용산구 한남동 747-18,126.9989676,37.53864494,정좌표
research_lib_4.shp.csv,80,400,삼성서울병원의학정보센터,서울,강남구,전문,민간,-,0,6765,강남구 일원본동 ,50번지 삼성서울병원,http://library.samsunghospital.com,02) 3410-3939,02) 3410-3919,강남구 일원본동 50번지 삼성서울병원,127.0859585,37.48865329,정좌표
research_lib_4.shp.csv,81,400,삼성인력개발원 국제화학습센터,서울,중구,전문,민간,-,0,143202,중구 서소문동 ,58-9 중앙빌딩 9층,-,02-729-9762,,중구 서소문동 58-9 중앙빌딩 9층,126.9725942,37.5622937,정좌표
research_lib_4.shp.csv,82,400,삼성전자 서울 정보자료실,서울,서초구,전문,민간,-,1990,6594,서울특별시 서초구 성촌길 33 (우면동),서울특별시 서초구 우면동 689 (주)삼성전자 E동 M층 정보자료실,-,02-6147-9125,,서울특별시 서초구 성촌길 33 (우면동)서울특별시 서초구 우면동 689 (주)삼성전자 E동 M층 정보자료실,127.0243929,37.46511921,정좌표
research_lib_4.shp.csv,83,400,상수도연구원 도서실,서울,광진구,전문,공공,-,1993,151742,광진구 구의2동 ,130-1,-,02) 3146-1715,02) 453-0734,광진구 구의2동 130-1,127.0921491,37.54675396,정좌표
research_lib_4.shp.csv,84,400,서울고등검찰청 도서실,서울,서초구,전문,공공,-,0,136072,서울특별시 서초구 반포대로 158 (서초동),서울고등검찰청,-,02-530-3295,,서울특별시 서초구 반포대로 158 (서초동)서울고등검찰청,127.0069078,37.495322,정좌표
research_lib_4.shp.csv,85,400,서울대학교박물관 도서자료실,서울,관악구,전문,민간,-,-,110470,관악구 신림9동 ,산56-1,http://museum.snu.ac.kr,02) 880-8096,02) 874-3999,관악구 신림9동 산56-1,126.9508228,37.4654609,인근좌표
research_lib_4.shp.csv,86,400,서울메트로 도서자료실,서울,성북구,전문,공공,-,-,100809,서초구 방배동 ,447-7 서울특별시지하철공사 ,-,02) 6110-5169,02) 587-7692,서초구 방배동 447-7 서울특별시지하철공사 ,126.9854422,37.47647057,정좌표
research_lib_4.shp.csv,87,400,서울보증보험 자료실,서울,종로구,전문,민간,-,0,137825,종로구 연지동 ,136-74 보증보험빌딩 5층,-,02) 3671-7519,02) 3671-7520,종로구 연지동 136-74 보증보험빌딩 5층,127.0007461,37.57369719,정좌표
research_lib_4.shp.csv,88,400,서울샬트르성바오로수녀회 도서관,서울,중구,전문,민간,-,-,100813,중구 명동2가 ,Jan-33,-,02) 3706-3234,02) 774-1999,중구 명동2가 1-33,126.9868786,37.56251435,인근좌표
research_lib_4.shp.csv,89,400,서울시교육연수원 교육정보자료실,서울,서초구,전문,공공,-,2018,7789,서울 서초구 방배3동,630번지,www.seti.go.kr,02-3019-8055,02-3019-8056,서울 서초구 방배3동630번지,126.9972954,37.47244394,정좌표
research_lib_4.shp.csv,90,400,서울시립미술관 자료실,서울,중구,전문,공공,-,-,100745,중구 서소문동 ,37,-,02-2124-8927,02-2124-8930,중구 서소문동 37,126.9744154,37.56429838,정좌표
research_lib_4.shp.csv,91,400,서울식물원 식물전문도서관,서울,강서구,전문,공공,-,2002,110062,서울특별시 강서구 마곡동로 161 (마곡동),서울식물원 식물문화센터 2층,http://botanicpark.seoul.go.kr/lib,02-2104-9794,,서울특별시 강서구 마곡동로 161 (마곡동)서울식물원 식물문화센터 2층,126.8349794,37.57002557,정좌표
research_lib_4.shp.csv,92,400,서울신문 편집국DB팀,서울,중구,전문,민간,-,1992,137701,중구 태평로 ,1월 25일,-,02) 2000-9272,02) 2000-9279,중구 태평로 1-25,128.5780586,35.87910601,인근좌표
research_lib_4.shp.csv,93,400,서울역사박물관 서울역사자료실 (구 문화정보센터),서울,종로구,전문,공공,-,2007,110524,종로구 신문로,새문안길 55,http://library.museum.seoul.kr,02-724-0231,02-724-0260,종로구 신문로새문안길 55,128.3102726,36.82759318,인근좌표
research_lib_4.shp.csv,94,400,서울연구원 도서관 (구 서울시정개발연구원),서울,서초구,전문,공공,-,-,130092,서초구 서초동 ,391,-,02) 2149-1020~4,02) 2149-1025,서초구 서초동 391 ,127.0205961,37.48022726,정좌표
research_lib_4.shp.csv,95,400,서울연극센터 정보자료관,서울,종로구,전문,공공,-,1982,131130,서울 종로구 명륜동4가,1,http://e-stc.or.kr/,02-743-9336,02-743-9337,서울 종로구 명륜동4가1,129.0850578,35.21646509,인근좌표
research_lib_4.shp.csv,96,400,서울위생병원도서실,서울,동대문구,전문,민간,-,1979,137070,동대문구 휘경2동 ,01월 29일,-,02-2210-3639,02-2214-4613,동대문구 휘경2동 29-1,127.0644171,37.58931227,정좌표
research_lib_4.shp.csv,97,400,서울의료원 의학도서실,서울,중랑구,전문,공공,-,-,110747,서울 중랑구 신내동,316 서울의료원 의학도서실,http://www.korsa.or.kr/asp/smclib/,02-2276-8505,02-2276-8509,서울 중랑구 신내동316 서울의료원 의학도서실,127.0979425,37.61297278,정좌표
research_lib_4.shp.csv,98,400,서울인재개발원 도서실,서울,서초구,전문,공공,-,2009,3169,서울 서초구 서초동,391,http://libedu.seoul.go.kr,02-3488-2342,02-3488-2346,서울 서초구 서초동391,127.0205961,37.48022726,정좌표
research_lib_4.shp.csv,99,400,서울적십자병원 의학도서실,서울,종로구,전문,민간,-,-,143705,종로구 평동 ,164,-,02) 2002-8787,02) 736-0964,종로구 평동 164,126.9669584,37.56737887,정좌표
research_lib_4.shp.csv,100,400,서울지방경찰청 서경북카페(도서관),서울,종로구,전문,공공,-,-,134031,서울특별시 종로구 사직로8길 31 (내자동),서울지방경찰청 서경북카페(도서관),https://smpa.winbook.kr,02-700-6478,,서울특별시 종로구 사직로8길 31 (내자동)서울지방경찰청 서경북카페(도서관),126.9719864,37.574881,정좌표
research_lib_5.shp.csv,1,500,서울지방법원동부지원 도서실,서울,광진구,전문,공공,-,1970,100230,광진구 자양동 ,680-22,-,02) 2204-2114,02) 454-9400,광진구 자양동 680-22,127.0877408,37.53674356,정좌표
research_lib_5.shp.csv,2,500,서울지방변호사회 도서관,서울,강동구,전문,민간,-,1989,100873,서초구 서초동 ,1718-1 변호사회관 2층,-,02) 3476-8086,,서초구 서초동 1718-1 변호사회관 2층,127.0085203,37.49262512,정좌표
research_lib_5.shp.csv,3,500,서울청소년수련관 도서실,서울,중구,전문,공공,-,1956,110781,중구 수표동 ,02월 27일,-,02) 2266-8247,02) 2266-3211,중구 수표동 27-2,126.9905364,37.56747318,정좌표
research_lib_5.shp.csv,4,500,서울특별시교육연구정보원 문헌정보실,서울,중구,전문,공공,-,0,156010,중구 회현동1가 ,100-177,http://reading.ssem.or.kr/r/dls2/advance.jsp,02) 3111-224,02) 3111-207,중구 회현동1가 100-177,126.9809729,37.55437095,정좌표
research_lib_5.shp.csv,5,500,서울특별시교육청 교육정보자료실,서울,종로구,전문,공공,-,1993,100813,종로구 신문로 ,2가 2-77,http://www.sen.go.kr,02) 3999-199,02) 3999-770,종로구 신문로 2가 2-77,126.9673833,37.56991039,정좌표
research_lib_5.shp.csv,6,500,서울특별시립보라매청소년회관 도서실,서울,동작구,전문,공공,-,1971,100739,동작구 신대방동 ,395,-,02) 834-7231,02) 834-7235,동작구 신대방동 395,126.9238361,37.49204209,인근좌표
research_lib_5.shp.csv,7,500,서울특별시의회 전문도서관,서울,중구,전문,공공,-,-,110410,중구 덕수궁길 15,서울시 의원회관 4층,http://library.smc.seoul.kr/,02) 3705-1426~7,02) 3705-1424,중구 덕수궁길 15서울시 의원회관 4층,126.9759778,37.56454791,정좌표
research_lib_5.shp.csv,8,500,서울특별시종합자료관,서울,중구,전문,공공,-,-,136100,서울 중구 서소문동 시청별관,덕수궁길 15 서소문청사1동 B1,http://src.seoul.go.kr,02) 3707-9875,02) 3707-9879,서울 중구 서소문동 시청별관덕수궁길 15 서소문청사1동 B1,126.9759778,37.56454791,정좌표
research_lib_5.shp.csv,9,500,선거연수원 도서실,서울,종로구,전문,공공,-,-,136742,종로구 인의동 ,48-25,-,02) 765-2393,02) 765-2394,종로구 인의동 48-25,126.998093,37.57213768,정좌표
research_lib_5.shp.csv,10,500,성가소비녀회 도서관,서울,성북구,전문,민간,-,-,100101,성북구 정릉동 ,1 성가소비녀회 ,www.holyfamily.or.kr,02) 940-5841,02) 943-1603,성북구 정릉동 1 성가소비녀회 ,127.0181687,37.60557453,정좌표
research_lib_5.shp.csv,11,500,성신여자대학교 박물관 자료실,서울,성북구,전문,민간,-,-,150051,성북구 동선동 3가 ,249-1 성신여자대학교 박물관,www.sungshin.ac.kr/museum,02-920-7325,02-920-2110,성북구 동선동 3가 249-1 성신여자대학교 박물관,127.0211933,37.59224435,정좌표
research_lib_5.shp.csv,12,500,성암고서박물관 도서실,서울,중구,전문,민간,-,2015,6939,중구 태평로 1가 ,60-17,-,02) 725-5227,02) 735-8383,중구 태평로 1가 60-17,126.9760223,37.56761871,정좌표
research_lib_5.shp.csv,13,500,성애병원도서실,서울,영등포구,전문,민간,-,    ,153803,영등포구 신길1동 ,451-5,-,02-840-7295-6,02-840-7755,영등포구 신길1동 451-5,126.9224053,37.51202043,정좌표
research_lib_5.shp.csv,14,500,성평등도서관,서울,동작구,전문,공공,-,-,137602,서울특별시 동작구 여의대방로54길 18 대방동,2층 성평등도서관,http://www.genderlibrary.or.kr,02-810-5004,02-810-5490,서울특별시 동작구 여의대방로54길 18 대방동2층 성평등도서관,126.9272265,37.51160947,정좌표
research_lib_5.shp.csv,15,500,세계닷컴 정보지원팀,서울,금천구,전문,민간,-,1989,135895,서울 금천구 가산동,550-15 세계일보 3층 세계닷컴 튜스팀,-,02) 2000-1336,02) 2000-1349,서울 금천구 가산동550-15 세계일보 3층 세계닷컴 튜스팀,126.8785402,37.47651811,정좌표
research_lib_5.shp.csv,16,500,세기문화사자료실,서울,서초구,전문,민간,-,2003,110760,서초구 서초우체국 ,사서함 200호,-,02) 3412-3735,,서초구 서초우체국 사서함 200호,127.0135013,37.47688099,인근좌표
research_lib_5.shp.csv,17,500,소망교회 도서관,서울,강남구,전문,민간,-,1969,138730,강남구 신사동 ,624-42 ,http://www.somang.net,02) 512-9191,02) 3445-0515,강남구 신사동 624-42 ,127.0319573,37.5249195,인근좌표
research_lib_5.shp.csv,18,500,소방방재청 기록관,서울,종로구,전문,공공,-,-,140743,서울 종로구 세종로 정부중앙청사,소방방재청,-,02) 2100-2114,,서울 종로구 세종로 정부중앙청사소방방재청,126.8654144,33.51440085,인근좌표
research_lib_5.shp.csv,19,500,수산업협동조합중앙회 도서실,서울,송파구,전문,민간,-,0,140871,송파구 신천동 ,11월 6일,-,02) 2240-3311,02) 2240-3060,송파구 신천동 11-6,127.1053735,37.51624095,정좌표
research_lib_5.shp.csv,20,500,순천향대학병원 의학도서관,서울,용산구,전문,민간,-,0,100747,용산구 한남동 ,657,-,02) 709-9797,02) 795-2538,용산구 한남동 657,127.0016253,37.53593905,인근좌표
research_lib_5.shp.csv,21,500,시사저널 자료실,서울,용산구,전문,민간,-,1976,121744,서울 용산구 한강로2가,302,-,02) 3703-7100,02) 733-2506,서울 용산구 한강로2가302,126.9693775,37.53134142,정좌표
research_lib_5.shp.csv,22,500,신세계 지식뱅크 자료실,서울,중구,전문,민간,-,-,110043,중구 충무로1가,신세계백화점건물,-,02-727-1809,02-727-1192,중구 충무로1가신세계백화점건물,127.4178275,36.31847356,정좌표
research_lib_5.shp.csv,23,500,신용보증기금 자료실,서울,마포구,전문,공공,-,-,137073,마포구 공덕동 ,254-5,-,"02) 710-4910,4911",02) 710-4368,마포구 공덕동 254-5,126.9524971,37.54531057,정좌표
research_lib_5.shp.csv,24,500,아시아역사연대 자료실,서울,종로구,전문,민간,-,-,110760,종로구 통인동 ,155번지 3층,-,02-720-4637,02-720-4632,종로구 통인동 155번지 3층,126.9711002,37.57866114,정좌표
research_lib_5.shp.csv,25,500,약사공론 도서자료실,서울,서초구,전문,민간,-,1983,6273,서초구 서초3동 ,1489-3  대한약사회관,-,02) 583-6516,02) 583-7035,서초구 서초3동 1489-3  대한약사회관,127.0053967,37.48262192,정좌표
research_lib_5.shp.csv,26,500,여성부 자료실,서울,종로구,전문,공공,-,0,110140,중구 무교동 ,96 프리미어플레이스빌딩 8층,http://library.mogef.go.kr/,02) 2075-4795,,중구 무교동 96 프리미어플레이스빌딩 8층,126.9782062,37.56880734,정좌표
research_lib_5.shp.csv,27,500,연세대학교 의과대학 강남세브란스병원 의학도서실,서울,강남구,전문,민간,-,-,130010,서울특별시 강남구 언주로 211 (도곡동),언주로 211,https://ymlib.yonsei.ac.kr/,02-2019-3272,02-2019-4801,서울특별시 강남구 언주로 211 (도곡동)언주로 211,127.0463195,37.49209082,정좌표
research_lib_5.shp.csv,28,500,연합뉴스 조사부 자료실,서울,종로구,전문,민간,-,1963,137072,종로구 수송동 ,Jan-85,-,02) 398-3114,,종로구 수송동 85-1,126.9811992,37.57508621,인근좌표
research_lib_5.shp.csv,29,500,영화진흥위원회 영화자료실,서울,동대문구,전문,민간,-,-,100793,동대문구 청량리동 ,206-46 ,-,02) 958-7585,02) 958-7568,동대문구 청량리동 206-46 ,127.0427953,37.59050928,정좌표
research_lib_5.shp.csv,30,500,외교통상부 국립외교원 도서관(구 외교통상부 외교안보연구원 도서관),서울,서초구,전문,공공,-,1989,138736,서초구 서초2동 ,1376-2,-,02) 3497-7664,02) 3497-7713,서초구 서초2동 1376-2,127.0306304,37.48337358,정좌표
research_lib_5.shp.csv,31,500,외환은행 금융경제도서실,서울,중구,전문,민간,-,2005,120190,중구 을지로2가 ,외환은행 본점,-,"02) 729-0913, 5",02) 771-2417,중구 을지로2가 외환은행 본점,126.979209,37.56538243,인근좌표
research_lib_5.shp.csv,32,500,울산의대 아산의학도서관,서울,송파구,전문,민간,-,1960,120750,서울특별시 송파구,올림픽로43길 ,http://aml.amc.seoul.kr,02-3010-4225,02-3010-4230,서울특별시 송파구올림픽로43길 ,127.1109848,37.52472866,인근좌표
research_lib_5.shp.csv,33,500,이화여대 사회복지관 새솔도서관,서울,서대문구,전문,민간,-,1990,139707,서울 서대문구 북아현동,1-826 이화여자대학교 종합사회복지관 새솔도서실,www.ewhawelfare.or.kr,02) 3277-2597,02) 364-0708,서울 서대문구 북아현동1-826 이화여자대학교 종합사회복지관 새솔도서실,126.9505895,37.56386516,정좌표
research_lib_5.shp.csv,34,500,이화여자대학교박물관 전문도서관,서울,서대문구,전문,민간,-,-,100032,서대문구 대현동 ,11-1 이화여자대학교 박물관,http://museum.ewha.ac.kr,02-3277-4695,02-3277-3153,서대문구 대현동 11-1 이화여자대학교 박물관,126.9474281,37.5625504,정좌표
research_lib_5.shp.csv,35,500,인제대 상계백병원 의학도서실,서울,노원구,전문,민간,-,-,137733,노원구 상계7동 ,761-1,http://www.paik.ac.kr/club/part01_vi.asp?p_cid=104&p_hp=JA&p_buseo=DEPT_C,02) 950-1384,02) 950-1386,노원구 상계7동 761-1,127.0629572,37.64865736,정좌표
research_lib_5.shp.csv,36,500,인제대 서울백병원 의학도서실,서울,중구,전문,민간,-,2001,120833,중구 저동2가 ,85,-,02) 2270-0905,02) 2270-0931,중구 저동2가 85,126.9888236,37.5649603,정좌표
research_lib_5.shp.csv,37,500,일동제약주식회사 도서실,서울,서초구,전문,민간,-,2002,137072,서초구 양재1동 ,60번지,-,02-526-3132,"02-526-3081,3310",서초구 양재1동 60번지,127.0371175,37.47754009,정좌표
research_lib_5.shp.csv,38,500,일본국제교류기금 서울문화센터,서울,서대문구,전문,공공,-,0,150756,서울 용산구 한강대로 366,트윈시티남산 오피스동 2층,http://lib.jpf.or.kr,02-397-2860,02-397-2870,서울 용산구 한강대로 366트윈시티남산 오피스동 2층,126.972628,37.55063529,정좌표
research_lib_5.shp.csv,39,500,재외동포재단 자료실,서울,서초구,전문,공공,-,-,100021,서초구 서초2동 ,1376-1 외교센터 102호 ,http://research.korean.net/,02) 3415-0189,02) 3463-6266,서초구 서초2동 1376-1 외교센터 102호 ,127.0299376,37.48254535,정좌표
research_lib_5.shp.csv,40,500,전국경제인연합회,서울,영등포구,전문,민간,-,0,135701,영등포구 여의도동 ,28-1 전국경제인연합회 1층 기업정보자료실,-,02-3771-0240,02-3771-0144,영등포구 여의도동 28-1 전국경제인연합회 1층 기업정보자료실,126.9202315,37.52217901,정좌표
research_lib_5.shp.csv,41,500,전국은행연합회 금융정보팀,서울,중구,전문,민간,-,1978,4526,중구 명동1가 ,4-1 은행회관 9층,-,"02) 3705-5092,5317",02) 3705-5339,중구 명동1가 4-1 은행회관 9층,126.9855328,37.56493383,정좌표
research_lib_5.shp.csv,42,500,전문건설공제조합 도서실,서울,강남구,전문,민간,-,0,100380,강남구 논현2동 ,71-2 건설회관 20층,-,02) 3284-2158,02) 3449-8798,강남구 논현2동 71-2 건설회관 20층,127.0340967,37.51734197,정좌표
research_lib_5.shp.csv,43,500,정림건축종합건축사사무소 도서자료실,서울,중구,전문,민간,-,-,135081,서울특별시 중구 세종대로12길 12 남대문로4가,정림건축 도서자료실,http://www.junglim.com,02-708-8699,02-2039-6429,서울특별시 중구 세종대로12길 12 남대문로4가정림건축 도서자료실,126.9769218,37.56162722,정좌표
research_lib_5.shp.csv,44,500,제일병원의학도서실,서울,중구,전문,민간,-,0,137070,중구 묵정동 ,1-19 제일병원 행정지원과 희망관1층,-,02-2000-7000,02-2264-1490,중구 묵정동 1-19 제일병원 행정지원과 희망관1층,126.999137,37.56150313,정좌표
research_lib_5.shp.csv,45,500,㈜신성 자료실,서울,강남구,전문,민간,-,0,140739,강남구 역삼동 ,820-8,-,02) 563-0131,02) 561-3821,강남구 역삼동 820-8,127.0275505,37.49921286,정좌표
research_lib_5.shp.csv,46,500,㈜일건씨앤씨건축사사무소 자료실,서울,서초구,전문,민간,-,0,156757,서초구 서초동 ,1665-14 씨앤씨빌딩,-,02) 525-8171,02) 525-8038,서초구 서초동 1665-14 씨앤씨빌딩,127.01614,37.49164406,정좌표
research_lib_5.shp.csv,47,500,㈜제일기획 자료실,서울,용산구,전문,민간,-,1995,150736,용산구 한남2동 ,제일기획 i-spa,-,02) 3780-2219,02) 3780-3070,용산구 한남2동 제일기획 i-spa,126.9804724,37.53114116,인근좌표
research_lib_5.shp.csv,48,500,㈜중외제약 도서실,서울,동작구,전문,민간,-,0,138200,동작구 신대방1동 ,698 중외제약빌딩,-,02) 840-6654,02) 847-0010,동작구 신대방1동 698 중외제약빌딩,126.9044529,37.48556903,정좌표
research_lib_5.shp.csv,49,500,주택산업연구원 자료실,서울,영등포구,전문,민간,-,0,140190,영등포구 여의도동 ,45-11 주택건설회관 10층 주택산업연구원 홍보자료실,http://www.libportal.co.kr/KHI/,02-3215-7619,02-3215-7677,영등포구 여의도동 45-11 주택건설회관 10층 주택산업연구원 홍보자료실,126.9285829,37.52037511,정좌표
research_lib_5.shp.csv,50,500,㈜토문엔지니어링건축사무소 자료실,서울,송파구,전문,민간,-,-,110786,서울 송파구 문정동,289 가든파이브 웍스 D동 10층,-,02) 2018-8155,02) 515-5004,서울 송파구 문정동289 가든파이브 웍스 D동 10층,127.1215829,37.48538358,인근좌표
research_lib_5.shp.csv,51,500,주한독일문화원 도서실,서울,용산구,전문,민간,-,1968,100161,용산구 후암동 ,339-1,-,02) 2021-2800,,용산구 후암동 339-1,126.9827287,37.55074647,정좌표
research_lib_5.shp.csv,52,500,주한영국문화원 도서실,서울,종로구,전문,민간,-,-,100120,종로구 신문로1가 ,226 흥국생명빌딩 4층,-,02-3702-0600,02-3702-0660,종로구 신문로1가 226 흥국생명빌딩 4층,126.9722625,37.56971794,정좌표
research_lib_5.shp.csv,53,500,주한프랑스문화원 미디어도서관&정보센터,서울,중구,전문,공공,-,-,150740,중구 봉래동1가 ,10 우리빌딩 18층,http://www.institutfrancais-seoul.com,02) 317-8500,02) 773-4447,중구 봉래동1가 10 우리빌딩 18층,126.973768,37.55947213,정좌표
research_lib_5.shp.csv,54,500,중국복음선교회 애화도서관,서울,중구,전문,민간,-,0,150740,중구 정동 25번지 ,중국복음선교회 애화도서관,-,02-318-3957,02-773-6278,중구 정동 25번지 중국복음선교회 애화도서관,126.9692975,37.56758309,인근좌표
research_lib_5.shp.csv,55,500,중소기업연구원 자료실,서울,영등포구,전문,민간,-,1979,150718,영등포구 여의도동 ,중소기업중앙회 6층,-,02) 707-9873,02) 707-9894,영등포구 여의도동 중소기업중앙회 6층,126.937506,37.51924585,정좌표
research_lib_5.shp.csv,56,500,중소기업중앙회 자료정보실,서울,영등포구,전문,민간,-,-,100272,영등포구 여의도동 ,16-2 중소기업회관 3층,-,02-2124-3447,02) 354-6676,영등포구 여의도동 16-2 중소기업회관 3층,126.9226982,37.52817829,정좌표
research_lib_5.shp.csv,57,500,중소기업진흥공단 정보자료실,서울,영등포구,전문,공공,-,-,140757,영등포구 여의도동 ,03월 24일,http://lib.sbc.or.kr,02) 769-6626,02) 769-6960,영등포구 여의도동 24-3,126.927503,37.52457847,정좌표
research_lib_5.shp.csv,58,500,중앙대의과대학부속병원 도서실,서울,중구,전문,민간,-,0,100777,중구 필동 2가 ,Jan-82,-,02) 2260-2065,02) 2263-1376,중구 필동 2가 82-1,126.9937318,37.56026522,정좌표
research_lib_5.shp.csv,59,500,중앙대의료원용산병원 도서실,서울,용산구,전문,민간,-,-,100759,용산구 한강로3가 ,65-207,-,02) 748-9480,02) 749-9560,용산구 한강로3가 65-207,126.9652748,37.52575588,인근좌표
research_lib_5.shp.csv,60,500,중앙인사위원회 행정자료실,서울,중구,전문,공공,-,2009,135980,중구 무교동 ,96,-,02) 3703-3616,02) 3703-3626,중구 무교동 96,126.9782062,37.56880734,정좌표
research_lib_5.shp.csv,61,500,중앙일보 신문지원팀 자료실,서울,중구,전문,민간,-,2003,122701,중구 순화동 ,7 중앙일보 미디어문화본부,-,02) 751-9056,02) 751-9554,중구 순화동 7 중앙일보 미디어문화본부,126.9710546,37.56159342,정좌표
research_lib_5.shp.csv,62,500,지식재산전문도서관,서울,강남구,전문,공공,-,2003,135240,서울특별시 강남구 테헤란로,131 (한국지식재산센터) 3층 지식재산전문도서관,http://lib.kiip.re.kr,02-2189-2682,02-2189-2696,서울특별시 강남구 테헤란로131 (한국지식재산센터) 3층 지식재산전문도서관,127.0329376,37.50008222,정좌표
research_lib_5.shp.csv,63,500,질병관리본부 기술정보관리실,서울,은평구,전문,공공,-,0,135220,서울특별시 은평구 통일로 ,194,-,02) 380-2956,02) 354-6676,서울특별시 은평구 통일로 194,126.9375067,37.59835151,인근좌표
research_lib_5.shp.csv,64,500,컴퓨터프로그램보호위원회 디지털정보법률자료실,서울,강남구,전문,공공,-,1998,135702,강남구 개포동 ,14-4 서울강남우체국 6층,http://library.socop.or.kr/asp/socop/,02) 2660-0063,02) 2660-0066,강남구 개포동 14-4 서울강남우체국 6층,127.0780355,37.49364356,정좌표
research_lib_5.shp.csv,65,500,태화기독교사회복지관 노광석기념자료실,서울,강남구,전문,민간,-,1989,6579,강남구 수서동 ,741,-,02) 2040-1603,02) 451-2071,강남구 수서동 741,127.0933008,37.4848386,정좌표
research_lib_5.shp.csv,66,500,통계청 나라셈도서관,서울,강남구,전문,공공,-,1991,6578,서울특별시 강남구 언주로,721 (관세청)  별관4층,http://www.kostat.go.kr/lib/,02-3438-8502,02-3438-8501,서울특별시 강남구 언주로721 (관세청)  별관4층,127.0349808,37.51814555,정좌표
research_lib_5.shp.csv,67,500,통일부 북한자료센터,서울,서초구,전문,공공,-,-,100031,서울특별시 서초구 반포대로 201 반포동,국립중앙도서관 본관 5층 통일부 북한자료센터,http://unibook.unikorea.go.kr,02-730-6658,02-725-5752,서울특별시 서초구 반포대로 201 반포동국립중앙도서관 본관 5층 통일부 북한자료센터,127.0038078,37.49783174,정좌표
research_lib_5.shp.csv,68,500,통일연구원 자료실,서울,서초구,전문,공공,-,-,135090,서울특별시 서초구 반포대로 217 반포동,조당청빌딩 지하 1층,https://www.kinu.or.kr/lib,02-2023-8209,02-2023-8293,서울특별시 서초구 반포대로 217 반포동조당청빌딩 지하 1층,127.0037871,37.49882081,정좌표
research_lib_5.shp.csv,69,500,평화방송 조사자료부,서울,중구,전문,민간,-,-,135777,중구 저동 1가 ,2월 3일,-,02) 2270-2114,02) 2270-2278,중구 저동 1가 2-3,126.9883293,37.56419616,정좌표
research_lib_5.shp.csv,70,500,포스코경영연구소 정보센터,서울,강남구,전문,민간,-,0,4523,강남구 삼성동 ,147 포스리빌딩,-,02) 3457-8092,02) 564-5320,강남구 삼성동 147 포스리빌딩,127.0555587,37.51317089,정좌표
research_lib_5.shp.csv,71,500,포스코센터 정보자료실,서울,강남구,전문,민간,-,1978,3004,강남구 대치4동 ,892 포스코센터 동관15층,-,02) 3457-1551~2,02) 3457-1928,강남구 대치4동 892 포스코센터 동관15층,127.0561289,37.505781,정좌표
research_lib_5.shp.csv,72,500,하나은행 도서실,서울,중구,전문,민간,-,-,150868,서울특별시 중구 을지로 35 (을지로1가),서울특별시 중구 을지로1가 101-1 (주)KEB하나은행 본점 7층,-,02-3709-6221,,서울특별시 중구 을지로 35 (을지로1가)서울특별시 중구 을지로1가 101-1 (주)KEB하나은행 본점 7층,126.9818658,37.56649151,정좌표
research_lib_5.shp.csv,73,500,학산도서관,서울,종로구,전문,민간,-,0,135793,서울특별시 종로구 평창34길 11 평창동,학산도서관,http://www.haksan.or.kr,02-396-3916,02-396-3907,서울특별시 종로구 평창34길 11 평창동학산도서관,126.9758979,37.61350293,정좌표
research_lib_5.shp.csv,74,500,한국가정법률상담소 도서실,서울,영등포구,전문,민간,-,0,150977,영등포구 여의도동 ,11월 13일,-,02) 780-5688~9(112),02) 780-0485,영등포구 여의도동 11-13,126.9243584,37.53069417,정좌표
research_lib_5.shp.csv,75,500,한국감정원 도서관,서울,강남구,전문,공공,-,-,135701,강남구 삼성동 ,171-2,-,02) 2189-6694,02) 561-6136,강남구 삼성동 171-2,127.0665792,37.51113772,정좌표
research_lib_5.shp.csv,76,500,한국거래소 자료실,서울,영등포구,전문,민간,-,0,121270,영등포구 여의도동 ,한국거래소 본관1층,-,02) 3774-4136,02) 3774-4138,영등포구 여의도동 한국거래소 본관1층,126.9153568,37.53104751,정좌표
research_lib_5.shp.csv,77,500,한국건설산업연구원 자료정보실,서울,강남구,전문,공공,-,1970,121726,강남구 논현동 ,71-2 건설회관,-,02) 3441-0675,02) 3441-0808,강남구 논현동 71-2 건설회관,127.0340967,37.51734197,정좌표
research_lib_5.shp.csv,78,500,한국게임산업진흥원 게임도서관,서울,마포구,전문,공공,-,    ,150705,마포구 상암동 ,DMC 1602 문화컨텐츠센터(C3) 2층,-,02) 3153-2265~6,02) 3153-2298~9,마포구 상암동 DMC 1602 문화컨텐츠센터(C3) 2층,126.8896129,37.58050964,정좌표
research_lib_5.shp.csv,79,500,한국경영자총협회 자료실,서울,마포구,전문,민간,-,1974,6141,마포구 대흥동 ,276-1,-,02) 3270-7318,02) 706-1059,마포구 대흥동 276-1,126.941198,37.54799656,정좌표
research_lib_5.shp.csv,80,500,한국경제연구원 정보자료센터,서울,영등포구,전문,민간,-,2007,3310,서울 영등포구 여의도동 하나대투증권빌딩,27-3 하나대투증권빌딩 8층,-,02) 3771-0001,02) 3771-0144,서울 영등포구 여의도동 하나대투증권빌딩27-3 하나대투증권빌딩 8층,126.9217801,37.52256515,정좌표
research_lib_5.shp.csv,81,500,한국고등교육재단 도서관,서울,강남구,전문,민간,-,-,136791,서울특별시 강남구 테헤란로 211 (역삼동),한국고등교육재단 지하 3층,http://library.kfas.or.kr,02-554-3512,02-554-3511,서울특별시 강남구 테헤란로 211 (역삼동)한국고등교육재단 지하 3층,127.0392423,37.50188824,정좌표
research_lib_5.shp.csv,82,500,한국고전번역원 고전번역전문도서관,서울,은평구,전문,공공,-,-,130722,서울특별시 은평구 진관1로 85 진관동,한국고전번역원 1층 고전번역전문도서관,http://lib.itkc.or.kr,02-350-4937,,서울특별시 은평구 진관1로 85 진관동한국고전번역원 1층 고전번역전문도서관,126.9287019,37.63091403,정좌표
research_lib_5.shp.csv,83,500,한국과학기술연구원 자료실,서울,성북구,전문,공공,-,0,135847,성북구 하월곡동 ,Jan-39,ric.kist.re.kr,02) 958-6061,02) 958-6069,성북구 하월곡동 39-1,127.0453148,37.60106522,정좌표
research_lib_5.shp.csv,84,500,한국과학기술원 고등과학원 도서실,서울,동대문구,전문,공공,-,0,135010,동대문구 청량리2동 ,207-43,-,02) 958-3705,02) 958-3790,동대문구 청량리2동 207-43,128.2415782,37.6422444,정좌표
research_lib_5.shp.csv,85,500,한국과학문화재단 자료실,서울,강남구,전문,공공,-,1988,156706,강남구 대치3동 ,960-12,-,02) 2174-6655,02) 3452-1991,강남구 대치3동 960-12,127.0623557,37.49607082,인근좌표
research_lib_5.shp.csv,86,500,한국관세무역개발원 자료실,서울,강남구,전문,공공,-,1999,137040,강남구 논현동 ,62 -13 관우빌딩 4층,http://kctdi.libp.net,02) 3416-5055,02) 3416-5028,강남구 논현동 62 -13 관우빌딩 4층,127.0336613,37.5207739,정좌표
research_lib_5.shp.csv,87,500,한국광물자원공사 총무팀 도서실,서울,동작구,전문,공공,-,1998,100784,동작구 시흥대로,606,http://lib.kores.net,02) 840-5626,02) 841-5885,동작구 시흥대로606,126.9048348,37.48646474,정좌표
research_lib_5.shp.csv,88,500,한국교과서연구재단 교과서정보관,서울,서초구,전문,민간,-,2000,137900,서울 서초구 반포동,706-9  4층,www.ktrf.re.kr,02) 2651-1953,02) 2651-1982,서울 서초구 반포동706-9  4층,127.0210348,37.51064629,정좌표
research_lib_5.shp.csv,89,500,한국교육과정평가원 자료실,서울,중구,전문,공공,-,-,100031,서울 중구 정동 정동빌딩,335호 ,library.kice.re.kr,02) 3704-3705-6,02) 3704-3529,서울 중구 정동 정동빌딩335호 ,126.9718591,37.56320476,인근좌표
research_lib_5.shp.csv,90,500,한국교육방송공사 콘텐츠운영팀,서울,서초구,전문,공공,-,1979,130012,서초구 우면동 ,Jun-92,-,02) 526-2944,02) 526-2949,서초구 우면동 92-6,127.0221188,37.47089017,정좌표
research_lib_5.shp.csv,91,500,한국교회사연구소 도서실,서울,중구,전문,민간,-,2005,100210,중구 저동1가 ,2-3 평화빌딩,-,02) 756-1691,02) 2269-1692,중구 저동1가 2-3 평화빌딩,126.9883293,37.56419616,정좌표
research_lib_5.shp.csv,92,500,한국국방연구원 자료정보팀,서울,동대문구,전문,공공,-,0,110230,동대문구 청량리2동 ,산5-7,http://kida.re.kr,02) 961-1355,02) 961-1195,동대문구 청량리2동 산5-7,126.8024726,35.67255897,인근좌표
research_lib_5.shp.csv,93,500,한국국제교류재단 정보자료실,서울,중구,전문,공공,-,1953,150974,서울 중구 수하동,67 미래에셋 센터원 빌딩 서관 ,http://library.kfcenter.or.kr,02) 2151-6506,02) 2151-6590,서울 중구 수하동67 미래에셋 센터원 빌딩 서관 ,126.9851528,37.56741091,정좌표
research_lib_5.shp.csv,94,500,한국금융연수원 도서실,서울,종로구,전문,민간,-,-,100980,종로구 삼청동,01월 28일,http://kbilib.kbi.or.kr,02-3700-1536,02-3700-1540,종로구 삼청동28-1,126.9826516,37.58605097,정좌표
research_lib_5.shp.csv,95,500,한국금융투자협회 자료실,서울,영등포구,전문,민간,-,1982,137787,영등포구 여의도동 ,45-2 한국금융투자협회 b1층 증권도서관,-,02-2003-9263,02-784-6582,영등포구 여의도동 45-2 한국금융투자협회 b1층 증권도서관,126.9276092,37.51904404,정좌표
research_lib_5.shp.csv,96,500,한국노동조합총연맹 자료실,서울,중구,전문,민간,-,1978,130710,영등포구 여의도동 ,35번지 한국노동조합총연맹 자료실,http://www.korsa.or.kr/asp/fktu/,02-6277-0067,02-6277-0068,영등포구 여의도동 35번지 한국노동조합총연맹 자료실,126.9269428,37.52192944,정좌표
research_lib_5.shp.csv,97,500,한국농수산식품유통공사 정보자료실,서울,서초구,전문,공공,-,0,121270,서울특별시 서초구 강남대로,27 (AT Center),-,02) 6300-1102,02) 6300-1615,서울특별시 서초구 강남대로27 (AT Center),127.0397987,37.46547198,정좌표
research_lib_5.shp.csv,98,500,한국농촌경제연구원 정보관리실,서울,동대문구,전문,공공,-,0,100180,동대문구 회기동 ,4-102,http://library.krei.re.kr,02) 3299-4212,02) 967-1437,동대문구 회기동 4-102,127.0539816,37.59190789,인근좌표
research_lib_5.shp.csv,99,500,한국대학교육협의회 자료실,서울,마포구,전문,민간,-,1945,137702,서울 마포구 상암동,1601 KGIT 상암센터 11층,-,02) 6393-5200,02) 780-8311,서울 마포구 상암동1601 KGIT 상암센터 11층,126.8889739,37.58004475,정좌표
research_lib_5.shp.csv,100,500,한국데이터베이스진흥원 자료실,서울,중구,전문,공공,-,0,135729,중구 다동 ,10 한국관광공사빌딩 9층,http://www.kdb.or.kr,02) 3708-5300,02) 318-5040,중구 다동 10 한국관광공사빌딩 9층,126.9815978,37.5685466,정좌표
research_lib_6.shp.csv,1,501,한국도서관협회 도서관,서울,서초구,전문,민간,-,2007,135090,서울 서초구 반포대로 ,201,http://www.kla.kr,02-537-6117,02-535-5616,서울 서초구 반포대로 201,127.0038078,37.49783174,정좌표
research_lib_6.shp.csv,2,501,한국무역협회 정보자료실,서울,강남구,전문,민간,-,2002,157857,강남구 삼성동 ,159-1 무역센터 트레이드타워 603호,http://203.233.200.80:8080,02) 6000-5108~9,02) 6000-5149,강남구 삼성동 159-1 무역센터 트레이드타워 603호,127.0611691,37.5103887,정좌표
research_lib_6.shp.csv,3,501,한국문학번역도서관,서울,강남구,전문,민간,-,2006,121848,서울 강남구 영동대로 112길 32(삼성동) 한국문학번역원 1층,108-5 한국문학번역원 빌딩 1층,http://library.ltikorea.or.kr,02-6919-7753,02-6919-7759,서울 강남구 영동대로 112길 32(삼성동) 한국문학번역원 1층108-5 한국문학번역원 빌딩 1층,127.0628405,37.51522231,정좌표
research_lib_6.shp.csv,4,501,한국문화관광연구원 정책자료실,서울,강서구,전문,공공,-,1979,137718,서울 강서구 방화3동,827번지,http://www.kcti.re.kr,02-2669-9818,02-2669-9880,서울 강서구 방화3동827번지,126.8137859,37.57903716,정좌표
research_lib_6.shp.csv,5,501,한국문화예술교육진흥원 자료실,서울,마포구,전문,공공,-,2010,137718,서울 마포구 ,성산로 128,www.arte.or.kr,02) 6209-5900,02) 6209-1392,서울 마포구 성산로 128,126.9082023,37.56379606,정좌표
research_lib_6.shp.csv,6,501,한국문화예술위원회 아르코예술정보관,서울,서초구,전문,공공,-,0,100101,서초구 서초3동 ,700 예술의전당 내,http://library.arko.or.kr,02) 760-4675,02) 525-3496,서초구 서초3동 700 예술의전당 내,127.0152041,37.48104803,정좌표
research_lib_6.shp.csv,7,501,한국문화위원회 예술자료원,서울,서초구,전문,공공,-,0,158050,서울 서초구 서초3동 예술의전당,한가람디자인미술관 내,http://archive.arko.or.kr,02-524-9400,02-524-9441,서울 서초구 서초3동 예술의전당한가람디자인미술관 내,126.9939851,37.47912809,인근좌표
research_lib_6.shp.csv,8,501,한국방송광고공사 광고자료센터,서울,중구,전문,공공,-,1991,137890,중구 태평로 1가,25 프레스센터18층,-,02) 2144-0181,,중구 태평로 1가25 프레스센터18층,126.9777177,37.56751806,정좌표
research_lib_6.shp.csv,9,501,한국방송영상산업진흥원 방송자료관,서울,양천구,전문,공공,-,-,137717,양천구 목동 ,923-5 방송회관 8층,-,02) 3219-5442,02) 3219-6020,양천구 목동 923-5 방송회관 8층,126.8714806,37.52694712,정좌표
research_lib_6.shp.csv,10,501,한국법제연구원 도서관,서울,서초구,전문,민간,-,1983,110054,서울특별시 서초구 양재천로,131 (한국법제연구원),www.lib.klri.re.kr,02-3498-8764,02-579-2376,서울특별시 서초구 양재천로131 (한국법제연구원),127.0419762,37.47880151,정좌표
research_lib_6.shp.csv,11,501,한국부동산연구원 도서관,서울,서초구,전문,공공,-,0,152050,서울 서초구 양재2동 동원산업빌딩,4층,http://library.kreri.re.kr/,02-520-5000,02)520-5080,서울 서초구 양재2동 동원산업빌딩4층,127.0423221,37.4832003,정좌표
research_lib_6.shp.csv,12,501,한국사회과학자료원,서울,종로구,전문,민간,-,1997,152759,서울 종로구 ,인왕산로 1길 25,http://www.kossda.or.kr,02-767-9500,02-767-9595,서울 종로구 인왕산로 1길 25,126.9643741,37.57349235,정좌표
research_lib_6.shp.csv,13,501,한국산업기술시험원 자료실,서울,구로구,전문,공공,-,1954,150973,구로구 구로동 ,222-13,-,02) 860-1237,02) 860-1225,구로구 구로동 222-13,126.8962138,37.48161304,정좌표
research_lib_6.shp.csv,14,501,한국산업단지공단 정보자료실,서울,구로구,전문,공공,-,0,121757,구로구 구로동 ,188-5 KICOX벤처빌딩,http://library.sa3000.com/kicox,070-8895-7286,0502-286-0591,구로구 구로동 188-5 KICOX벤처빌딩,126.8972828,37.48470577,정좌표
research_lib_6.shp.csv,15,501,한국산업은행 문헌정보실,서울,영등포구,전문,공공,-,-,137870,영등포구 여의도동 ,03월 16일,www.kdb.co.kr,02) 787-7813,02) 787-7893,영등포구 여의도동 16-3,126.9208876,37.52704959,정좌표
research_lib_6.shp.csv,16,501,한국산업인력공단 정보자료실,서울,마포구,전문,공공,-,-,150038,마포구 공덕동 ,370-4,-,02) 3274-9788,02) 3271-9481,마포구 공덕동 370-4,126.9499498,37.54673445,정좌표
research_lib_6.shp.csv,17,501,한국세무사회 조세도서관,서울,서초구,전문,민간,-,0,140132,서초구 서초3동 ,1497-16,-,02) 587-6021,02) 521-9457,서초구 서초3동 1497-16,127.0038044,37.48665624,정좌표
research_lib_6.shp.csv,18,501,한국소방안전협회 자료실,서울,영등포구,전문,공공,-,0,150914,서울 영등포구 영등포동8가,Apr-87,-,02-2671-8610,02-2679-8102,서울 영등포구 영등포동8가87-4,126.9061833,37.53157653,정좌표
research_lib_6.shp.csv,19,501,한국순교복자수녀회 도서실,서울,용산구,전문,민간,-,-,150010,용산구 청파동 2가 ,Jan-38,-,02) 707-5598,02) 704-9606,용산구 청파동 2가 38-1,126.967913,37.54570684,정좌표
research_lib_6.shp.csv,20,501,한국스카우트연맹 도서관,서울,영등포구,전문,민간,-,1981,100750,서울특별시 영등포구 국회대로62길,14 (한국스카우트연맹),www.scout.or.kr,02) 6335-2030,02) 6335-2020,서울특별시 영등포구 국회대로62길14 (한국스카우트연맹),126.9164749,37.52670289,정좌표
research_lib_6.shp.csv,21,501,한국신용정보 자료실,서울,영등포구,전문,민간,-,1983,122707,영등포구 여의도동 ,14-33 한국신용정보 9층,-,02) 2122-4306,02) 2122-4110,영등포구 여의도동 14-33 한국신용정보 9층,126.9207792,37.52824416,정좌표
research_lib_6.shp.csv,22,501,한국언론진흥재단 언론도서관,서울,중구,전문,민간,-,1958,4166,서울 중구 태평로1가 프레스센터빌딩,25 프레스센터빌딩13층,http://211.51.233.11/2011page/search/data_found_search_simple.asp,02) 2001-7511,02) 2001-7510,서울 중구 태평로1가 프레스센터빌딩25 프레스센터빌딩13층,126.9777177,37.56751806,정좌표
research_lib_6.shp.csv,23,501,한국여성정책연구원 여성정보자료실,서울,은평구,전문,공공,-,1974,3925,은평구 진흥로,276,http://library.kwdi.re.kr:8080/,02) 3156-7282,02) 3156-7274,은평구 진흥로276,126.9395599,37.61043247,인근좌표
research_lib_6.shp.csv,24,501,한국연구원 도서실,서울,마포구,전문,공공,-,1963,139706,서울특별시 마포구 토정로31길 12 (용강동),3층,http://www.riks.or.kr,02-737-1731,02-737-1739,서울특별시 마포구 토정로31길 12 (용강동)3층,126.9424756,37.54145858,정좌표
research_lib_6.shp.csv,25,501,한국영상자료원 영상도서관,서울,마포구,전문,공공,-,1952,4514,서울특별시 마포구 월드컵북로 400 상암동,1602번지 문화콘텐츠센터 2층,https://www.koreafilm.or.kr/library/main,02-3153-2051,02-3153-2080,서울특별시 마포구 월드컵북로 400 상암동1602번지 문화콘텐츠센터 2층,126.8898931,37.58045097,정좌표
research_lib_6.shp.csv,26,501,한국원자력의학원 의학정보연구실,서울,노원구,전문,공공,-,0,100770,노원구 노원길 ,75(공릉동 215-4),http://www.korsa.or.kr/asp/kirams/,02-970-2071,02-970-2402,노원구 노원길 75(공릉동 215-4),127.0732264,37.65524724,인근좌표
research_lib_6.shp.csv,27,501,한국은행 정보자료실,서울,중구,전문,공공,-,    ,137867,서울특별시 중구 세종대로 67 태평로2가,한국은행 본관 삼성본관 빌딩 17층 도서관,http://dl.bok.or.kr,02-759-4208,02-759-4299,서울특별시 중구 세종대로 67 태평로2가한국은행 본관 삼성본관 빌딩 17층 도서관,126.9755592,37.56238282,정좌표
research_lib_6.shp.csv,28,501,한국일보 신문도서관,서울,중구,전문,민간,-,0,134070,서울 중구 남대문로2가 한진빌딩,본관3층 306호,-,02) 724-2441,02) 723-9989,서울 중구 남대문로2가 한진빌딩본관3층 306호,126.9829218,37.56562285,정좌표
research_lib_6.shp.csv,29,501,한국자동차공업협회 정보자료실,서울,서초구,전문,민간,-,-,135791,서울 서초구 서초3동,1461-15 자동차회관,-,02) 3660-1864,02) 3660-1904,서울 서초구 서초3동1461-15 자동차회관,127.0117537,37.48267424,정좌표
research_lib_6.shp.csv,30,501,한국전기안전공사 자료실,서울,강동구,전문,공공,-,0,135791,강동구 명일동 ,Feb-46,-,02) 440-2166,02) 440-2117,강동구 명일동 46-2,127.1545981,37.55463292,정좌표
research_lib_6.shp.csv,31,501,한국전력거래소 자료실,서울,강남구,전문,공공,-,0,121835,강남구 삼성동 ,167,-,02) 3456-6779,02) 3456-6649,강남구 삼성동 167,127.0632811,37.5123462,정좌표
research_lib_6.shp.csv,32,501,한국전력공사 본사 자료실,서울,강남구,전문,공공,-,0,157840,강남구 삼성동 ,167 한국전력빌딩 4층,-,02) 3456-3683,02) 3456-3949,강남구 삼성동 167 한국전력빌딩 4층,127.0632811,37.5123462,정좌표
research_lib_6.shp.csv,33,501,한국전자산업진흥회 자료실,서울,마포구,전문,민간,-,1987,100170,서울 마포구 상암동,1599 전자회관 11-12층,-,02) 6388-6056,02) 6388-6059,서울 마포구 상암동1599 전자회관 11-12층,126.8883551,37.58082531,정좌표
research_lib_6.shp.csv,34,501,한국정보문화진흥원 전자정보실,서울,강서구,전문,공공,-,-,137873,강서구 등촌동 ,645-11,-,02)2131-0135,02) 3660-2659,강서구 등촌동 645-11,126.8613458,37.55350955,정좌표
research_lib_6.shp.csv,35,501,한국정보화진흥원 자료실,서울,중구,전문,공공,-,2012,3923,서울 중구 무교동,77,-,02) 2131-0135,02) 2131-0319,서울 중구 무교동77,126.9787937,37.56878177,정좌표
research_lib_6.shp.csv,36,501,한국지방행정연구원 자료실,서울,서초구,전문,공공,-,0,135949,서초구 서초3동 ,1552-13,-,02) 3488-7362,02) 3488-7370,서초구 서초3동 1552-13,127.0091826,37.49139529,정좌표
research_lib_6.shp.csv,37,501,한국지역정보개발원,서울,마포구,전문,공공,-,1991,100882,서울특별시 마포구 성암로 301 (상암동),한국지역정보개발원 2층 도서관,http://klid.egentouch.com,02-2031-9119,02-2031-9360,서울특별시 마포구 성암로 301 (상암동)한국지역정보개발원 2층 도서관,126.8879378,37.58246887,정좌표
research_lib_6.shp.csv,38,501,한국직업능력개발원 정보자료실,서울,강남구,전문,공공,-,-,137715,강남구 청담2동 ,01월 15일,library.krivet.re.kr,02) 3485-5026,02) 3485-5046,강남구 청담2동 15-1,127.0623557,37.49607082,인근좌표
research_lib_6.shp.csv,39,501,한국청소년상담원 자료실,서울,중구,전문,민간,-,0,139242,서울 중구 신당6동,292번지 홍진빌딩 5층 한국청소년상담원 정보자료실,http://www.kyci.or.kr,02) 2250-3146,02) 2250-3007,서울 중구 신당6동292번지 홍진빌딩 5층 한국청소년상담원 정보자료실,126.9929833,37.55786661,인근좌표
research_lib_6.shp.csv,40,501,한국청소년정책연구원 정보자료실,서울,서초구,전문,공공,-,0,120013,서초구 우면동 ,한국교원단체총연합 9층,-,02) 2188-8852,02) 2188-8819,서초구 우면동 한국교원단체총연합 9층,127.0259711,37.46831487,정좌표
research_lib_6.shp.csv,41,501,한국체육과학연구원 도서관,서울,노원구,전문,공공,-,0,157822,노원구 공릉동 ,223-19,-,02) 970-9524,02) 970-9502,노원구 공릉동 223-19,127.0801749,37.62546948,정좌표
research_lib_6.shp.csv,42,501,한국케이블TV 방송협회 자료실,서울,서대문구,전문,민간,-,1984,121270,서울 서대문구 충정로3가,464 충청타워 5층,-,02) 735-6514,02-735-6511,서울 서대문구 충정로3가464 충청타워 5층,126.9640109,37.55980742,정좌표
research_lib_6.shp.csv,43,501,한국항공진흥협회 항공자료실 ,서울,강서구,전문,민간,-,1991,135081,강서구 과해동 ,272 한국공항공사 5층,-,02-2669-8700,,강서구 과해동 272 한국공항공사 5층,126.7773816,37.56402919,인근좌표
research_lib_6.shp.csv,44,501,한국해양수산개발원 해양수산정보센터,서울,마포구,전문,공공,-,1989,6764,서울 마포구 상암동,"1652번지 KBS미디어센터빌딩 13~16층, 21층",http://library.kmi.re.kr,02) 2105-2737,02) 2105-2739,"서울 마포구 상암동1652번지 KBS미디어센터빌딩 13~16층, 21층",126.8908859,37.57648623,정좌표
research_lib_6.shp.csv,45,501,한국행정연구원 자료실,서울,강남구,전문,공공,-,0,150885,서울특별시 강남구,언주로 508 상록회관 10층,-,02-2007-0557,,서울특별시 강남구언주로 508 상록회관 10층,127.0429101,37.5039666,정좌표
research_lib_6.shp.csv,46,501,한국형사정책연구원 도서실,서울,서초구,전문,민간,-,-,110061,서울특별시 서초구 태봉로 114 (우면동),한국형사정책연구원 도서관(11층),https://www.kic.re.kr,02-3460-5135,02-3462-4671,서울특별시 서초구 태봉로 114 (우면동)한국형사정책연구원 도서관(11층),127.0295492,37.46423848,정좌표
research_lib_6.shp.csv,47,501,한국화재보험협회 자료실,서울,영등포구,전문,민간,-,-,100797,영등포구 여의도동 ,Apr-35,-,02) 3780-0325,02) 783-4094,영등포구 여의도동 35-4,126.9262974,37.52151402,정좌표
research_lib_6.shp.csv,48,501,한글학회 국어학전문도서관,서울,종로구,전문,민간,-,0,150717,종로구 신문로1가 ,58-14 한글회관,-,02) 738-2236,02) 738-2238,종로구 신문로1가 58-14 한글회관,126.9723242,37.57091973,정좌표
research_lib_6.shp.csv,49,501,한화석유화학 정보자료실,서울,중구,전문,민간,-,2020,7505,중구 장교동 ,한화빌딩 16층,-,02) 729-4031,02) 729-1394,중구 장교동 한화빌딩 16층,128.6005549,35.87325318,인근좌표
research_lib_6.shp.csv,50,501,한화증권 자료실,서울,영등포구,전문,민간,-,0,110703,영등포구 여의도동 ,23-5 한화증권빌딩 8층,-,02) 3772-7489,02) 3772-8407,영등포구 여의도동 23-5 한화증권빌딩 8층,126.9229333,37.52396362,정좌표
research_lib_6.shp.csv,51,501,항공도서관,서울,강서구,전문,공공,-,1998,110760,서울특별시 강서구 하늘길 177 공항동,국립항공박물관,-,02-6940-3036,,서울특별시 강서구 하늘길 177 공항동국립항공박물관,126.8088728,37.55686928,정좌표
research_lib_6.shp.csv,52,501,해외문화홍보원 자료실,서울,종로구,전문,공공,-,1988,110250,종로구 세종로 ,Jan-82,-,02) 398-1916,,종로구 세종로 82-1,126.9779006,37.57390912,정좌표
research_lib_6.shp.csv,53,501,행정안전부(행정자치부)자료관,서울,종로구,전문,공공,-,-,110801,종로구 세종로 ,55 정부중앙청사 1401호,http://lib.mopas.go.kr,02) 2100-3018,02) 2100-3034,종로구 세종로 55 정부중앙청사 1401호,126.9783763,37.57554816,인근좌표
research_lib_6.shp.csv,54,501,헌법재판소도서관,서울,종로구,전문,공공,-,0,137130,종로구 재동 ,83,http://library.ccourt.go.kr,02-708-3817,02-708-3820,종로구 재동 83,126.9847688,37.57810765,정좌표
research_lib_6.shp.csv,55,501,현대건설 기술정보실,서울,종로구,전문,민간,-,-,150706,종로구 계동 ,140-2,-,02) 746-3012,02) 746-3032,종로구 계동 140-2,126.987373,37.57840174,정좌표
